[
  {
    "name": "AN-NUUR ISLAMIC MODEL ACADEMY  AJASE IPO",
    "lga": "IREPODUN",
    "category": "PRIVATE",
    "address": "an-nuur islamic model academy  ajase ipo, ajase ipo",
    "ownership": "PRIVATE PROPRIETOR",
    "school_level": "ECCDE AND PRIMARY",
    "latitude": 8.2458715,
    "longitude": 4.8118909
  },
  {
    "name": "DOUBLE CROWN NURSERY AND PRIMARY SCHOOL ",
    "lga": "IREPODUN",
    "category": "PRIVATE",
    "address": "double crown nursery and primary school , omu- aran",
    "ownership": "PRIVATE PROPRIETOR",
    "school_level": "ECCDE AND PRIMARY",
    "latitude": 8.1402266,
    "longitude": 5.0963141
  },
  {
    "name": "AL-WAKEEL ACADEMY ",
    "lga": "IREPODUN",
    "category": "PRIVATE",
    "address": "al-wakeel academy , ajase ipo",
    "ownership": "PRIVATE PROPRIETOR",
    "school_level": "ECCDE AND PRIMARY",
    "latitude": 8.2458715,
    "longitude": 4.8118909
  },
  {
    "name": "AJIBIKE NURSERY AND PRIMARY SCHOOL, OKE-ONIGBIN",
    "lga": "ISIN",
    "category": "PRIVATE",
    "address": "ajibike nursery and primary school, oke-onigbin, oke-onigbin",
    "ownership": "PRIVATE PROPRIETOR",
    "school_level": "ECCDE AND PRIMARY",
    "latitude": 8.2217893,
    "longitude": 4.998745899999999
  },
  {
    "name": "AL-MUBAYINAT NURSERY AND PRIMARY SCHOOL, OKE-ONIGBIN",
    "lga": "ISIN",
    "category": "PRIVATE",
    "address": "al-mubayinat nursery and primary school, oke-onigbin, oke-onigbin",
    "ownership": "PRIVATE PROPRIETOR",
    "school_level": "ECCDE AND PRIMARY",
    "latitude": 8.2217893,
    "longitude": 4.998745899999999
  },
  {
    "name": "ALL SAINTS ANGLICAN LOCAL GOVERNMENT EDUCATION AUTHORITY SCHOOL, OKE-ONIGBIN",
    "lga": "ISIN",
    "category": "PUBLIC",
    "address": "all saints anglican local government education authority school, oke-onigbin, oke-onigbin",
    "ownership": "OTHERS",
    "school_level": "ECCDE AND PRIMARY",
    "latitude": 8.2217893,
    "longitude": 4.998745899999999
  },
  {
    "name": "BAPTIST LOCAL GOVERNMENT EDUCATION AUTHORITY SCHOOL, IJARA-ISIN",
    "lga": "ISIN",
    "category": "PUBLIC",
    "address": "baptist local government education authority school, ijara-isin, ijara-isin",
    "ownership": "STATE/LOCAL GOVERNMENT",
    "school_level": "ECCDE AND PRIMARY",
    "latitude": 8.2501039,
    "longitude": 5.0234472
  },
  {
    "name": "BAPTIST LOCAL GOVERNMENT EDUCATION AUTHORITY SCHOOL, IJI-ISIN",
    "lga": "ISIN",
    "category": "PUBLIC",
    "address": "baptist local government education authority school, iji-isin, iji-isin",
    "ownership": "STATE/LOCAL GOVERNMENT",
    "school_level": "ECCDE AND PRIMARY",
    "latitude": 8.2692883,
    "longitude": 5.0156456
  },
  {
    "name": "BAPTIST LOCAL GOVERNMENT EDUCATION AUTHORITY SCHOOL, ISANLU-ISIN",
    "lga": "ISIN",
    "category": "PUBLIC",
    "address": "baptist local government education authority school, isanlu-isin, isanlu-isin",
    "ownership": "STATE/LOCAL GOVERNMENT",
    "school_level": "ECCDE AND PRIMARY",
    "latitude": 8.230272099999999,
    "longitude": 5.083295199999999
  },
  {
    "name": "BAPTIST LOCAL GOVERNMENT EDUCATION AUTHORITY SCHOOL, OBA-ISIN",
    "lga": "ISIN",
    "category": "PUBLIC",
    "address": "baptist local government education authority school, oba-isin, oba -isin",
    "ownership": "STATE/LOCAL GOVERNMENT",
    "school_level": "ECCDE AND PRIMARY",
    "latitude": 8.2926225,
    "longitude": 5.0579171
  },
  {
    "name": "BAPTIST LOCAL GOVERNMENT EDUCATION AUTHORITY SCHOOL, PAMO-ISIN",
    "lga": "ISIN",
    "category": "PUBLIC",
    "address": "baptist local government education authority school, pamo-isin, pamo-isin",
    "ownership": "STATE/LOCAL GOVERNMENT",
    "school_level": "ECCDE AND PRIMARY",
    "latitude": 8.2921947,
    "longitude": 5.0377529
  },
  {
    "name": "CAC NURSERY AND PRIMARY SCHOOL, OKE-ONIGBIN",
    "lga": "ISIN",
    "category": "PRIVATE",
    "address": "cac nursery and primary school, oke-onigbin, oke-onigbin",
    "ownership": "PRIVATE PROPRIETOR",
    "school_level": "ECCDE AND PRIMARY",
    "latitude": 8.225753,
    "longitude": 4.8923071
  },
  {
    "name": "COMMUNITY LOCAL GOVERNMENT EDUCATION AUTHORITY SCHOOL, ABA IGBIRA ISANLU-ISIN",
    "lga": "ISIN",
    "category": "PUBLIC",
    "address": "community local government education authority school, aba igbira isanlu-isin, aba igbira isanlu-isin",
    "ownership": "STATE/LOCAL GOVERNMENT",
    "school_level": "ECCDE AND PRIMARY",
    "latitude": 8.230272099999999,
    "longitude": 5.083295199999999
  },
  {
    "name": "COMMUNITY LOCAL GOVERNMENT EDUCATION AUTHORITY SCHOOL, ELEYIN-ISANLU-ISIN",
    "lga": "ISIN",
    "category": "PUBLIC",
    "address": "community local government education authority school, eleyin-isanlu-isin, eleyin isanlu-isin",
    "ownership": "STATE/LOCAL GOVERNMENT",
    "school_level": "ECCDE AND PRIMARY",
    "latitude": 8.1671096,
    "longitude": 5.0487285
  },
  {
    "name": "COMMUNITY LOCAL GOVERNMENT EDUCATION AUTHORITY SCHOOL, ETI OYI ISANLU-ISIN",
    "lga": "ISIN",
    "category": "PUBLIC",
    "address": "community local government education authority school, eti oyi isanlu-isin, eti-oyi  isanlu-isin",
    "ownership": "STATE/LOCAL GOVERNMENT",
    "school_level": "ECCDE AND PRIMARY",
    "latitude": 8.230272099999999,
    "longitude": 5.083295199999999
  },
  {
    "name": "COMMUNITY LOCAL GOVERNMENT EDUCATION AUTHORITY SCHOOL, IJARA-ISIN",
    "lga": "ISIN",
    "category": "PRIVATE",
    "address": "community local government education authority school, ijara-isin, ijara-isin",
    "ownership": "PRIVATE PROPRIETOR",
    "school_level": "ECCDE AND PRIMARY",
    "latitude": 8.2501039,
    "longitude": 5.0234472
  },
  {
    "name": "COMMUNITY LOCAL GOVERNMENT EDUCATION AUTHORITY SCHOOL, KAJOLA-ISANLU-ISIN",
    "lga": "ISIN",
    "category": "PUBLIC",
    "address": "community local government education authority school, kajola-isanlu-isin, kajola-isanlu isin",
    "ownership": "STATE/LOCAL GOVERNMENT",
    "school_level": "ECCDE AND PRIMARY",
    "latitude": 8.230272099999999,
    "longitude": 5.083295199999999
  },
  {
    "name": "COMMUNITY LOCAL GOVERNMENT EDUCATION AUTHORITY SCHOOL, KAJOLA-OWODE",
    "lga": "ISIN",
    "category": "PUBLIC",
    "address": "community local government education authority school, kajola-owode, kajola-owode isin",
    "ownership": "STATE/LOCAL GOVERNMENT",
    "school_level": "ECCDE AND PRIMARY",
    "latitude": 8.0901864,
    "longitude": 3.346448
  },
  {
    "name": "COMMUNITY LOCAL GOVERNMENT EDUCATION AUTHORITY SCHOOL, KUDU OWODE",
    "lga": "ISIN",
    "category": "PUBLIC",
    "address": "community local government education authority school, kudu owode, kudu-owode isin",
    "ownership": "STATE/LOCAL GOVERNMENT",
    "school_level": "ECCDE AND PRIMARY",
    "latitude": 6.948262,
    "longitude": 3.5079264
  },
  {
    "name": "COMMUNITY LOCAL GOVERNMENT EDUCATION AUTHORITY SCHOOL, MONASARA ISANLU-ISIN",
    "lga": "ISIN",
    "category": "PUBLIC",
    "address": "community local government education authority school, monasara isanlu-isin, monasara isanlu-isin",
    "ownership": "STATE/LOCAL GOVERNMENT",
    "school_level": "ECCDE AND PRIMARY",
    "latitude": 8.230272099999999,
    "longitude": 5.083295199999999
  },
  {
    "name": "COMMUNITY LOCAL GOVERNMENT EDUCATION AUTHORITY SCHOOL, OKE-OYI-ISIN",
    "lga": "ISIN",
    "category": "PUBLIC",
    "address": "community local government education authority school, oke-oyi-isin, oke-oyi-isin",
    "ownership": "STATE/LOCAL GOVERNMENT",
    "school_level": "ECCDE AND PRIMARY",
    "latitude": 8.2529383,
    "longitude": 4.987374
  },
  {
    "name": "DEMONSTRATION LOCAL GOVERNMENT EDUCATION AUTHORITY SCHOOL, IWO",
    "lga": "ISIN",
    "category": "PUBLIC",
    "address": "demonstration local government education authority school, iwo, iwo-isin",
    "ownership": "STATE/LOCAL GOVERNMENT",
    "school_level": "ECCDE AND PRIMARY",
    "latitude": 8.3024331,
    "longitude": 5.0371025
  },
  {
    "name": "ECWA LOCAL GOVERNMENT EDUCATION AUTHORITY SCHOOL, OWU-ISIN",
    "lga": "ISIN",
    "category": "PUBLIC",
    "address": "ecwa local government education authority school, owu-isin, owu-isin",
    "ownership": "STATE/LOCAL GOVERNMENT",
    "school_level": "ECCDE AND PRIMARY",
    "latitude": 8.2721777,
    "longitude": 5.0026454
  },
  {
    "name": "FIRST BAPTIST CHURCH NURSERY AND PRIMARY SCHOOL, ISANLU-ISIN",
    "lga": "ISIN",
    "category": "PRIVATE",
    "address": "first baptist church nursery and primary school, isanlu-isin, isanlu-isin",
    "ownership": "PRIVATE PROPRIETOR",
    "school_level": "ECCDE AND PRIMARY",
    "latitude": 8.230272099999999,
    "longitude": 5.083295199999999
  },
  {
    "name": "GREEN PASTURE  NURSERY AND PRIMARY ACADEMY, IJARA-ISIN",
    "lga": "ISIN",
    "category": "PRIVATE",
    "address": "green pasture  nursery and primary academy, ijara-isin, ijara-isin",
    "ownership": "PRIVATE PROPRIETOR",
    "school_level": "ECCDE AND PRIMARY",
    "latitude": 8.2501039,
    "longitude": 5.0234472
  },
  {
    "name": "HI-CLASS STANDARD NURSERY AND PRIMARY SCHOOL, OKE-ONIGBIN",
    "lga": "ISIN",
    "category": "PRIVATE",
    "address": "hi-class standard nursery and primary school, oke-onigbin, oke-onigbin",
    "ownership": "PRIVATE PROPRIETOR",
    "school_level": "ECCDE AND PRIMARY",
    "latitude": 8.2217893,
    "longitude": 4.998745899999999
  },
  {
    "name": "INTERNATIONAL TROPICAL NURSERY AND PRIMARY SCHOOL, OKE-ONIGBIN",
    "lga": "ISIN",
    "category": "PRIVATE",
    "address": "international tropical nursery and primary school, oke-onigbin, oke-onigbin",
    "ownership": "PRIVATE PROPRIETOR",
    "school_level": "ECCDE AND PRIMARY",
    "latitude": 8.2217893,
    "longitude": 4.998745899999999
  },
  {
    "name": "JAMAAT NASRIL ISLAM LOCAL GOVERNMENT EDUCATION AUTHORITY SCHOOL, OWU-ISIN",
    "lga": "ISIN",
    "category": "PUBLIC",
    "address": "jamaat nasril islam local government education authority school, owu-isin, owu-isin",
    "ownership": "STATE/LOCAL GOVERNMENT",
    "school_level": "ECCDE AND PRIMARY",
    "latitude": 8.2855224,
    "longitude": 5.0260479
  },
  {
    "name": "KALAYO MODEL NURSERY AND PRIMARY SCHOOL",
    "lga": "ISIN",
    "category": "PRIVATE",
    "address": "kalayo model nursery and primary school, isanlu-isin",
    "ownership": "PRIVATE PROPRIETOR",
    "school_level": "ECCDE AND PRIMARY",
    "latitude": 8.230272099999999,
    "longitude": 5.083295199999999
  },
  {
    "name": "KINGDOM ACCESS NURSERY AND PRIMARY SCHOOL, OKE-ONIGBIN",
    "lga": "ISIN",
    "category": "PRIVATE",
    "address": "kingdom access nursery and primary school, oke-onigbin, oke-onigbin",
    "ownership": "PRIVATE PROPRIETOR",
    "school_level": "ECCDE AND PRIMARY",
    "latitude": 8.2217893,
    "longitude": 4.998745899999999
  },
  {
    "name": "LOVE OF GOD NURSERY AND PRIMARY SCHOOL, EDIDI",
    "lga": "ISIN",
    "category": "PRIVATE",
    "address": "love of god nursery and primary school, edidi, edidi",
    "ownership": "Military/Police/Para-Military Institution",
    "school_level": "ECCDE AND PRIMARY",
    "latitude": 7.8001537,
    "longitude": 4.5736735
  },
  {
    "name": "KAIAMA LOCAL GOVERNMENT EDUCATION AUTHORITY PRIMARY SCHOOL, OLORI",
    "lga": "KAIAMA",
    "category": "PUBLIC",
    "address": "kaiama local government education authority primary school, olori, olori",
    "ownership": "STATE/LOCAL GOVERNMENT",
    "school_level": "PRIMARY ONLY",
    "latitude": 9.6062133,
    "longitude": 3.9419415
  },
  {
    "name": "KAIAMA LOCAL GOVERNMENT EDUCATION AUTHORITY PRIMARY SCHOOL, SABON GIDA",
    "lga": "KAIAMA",
    "category": "PUBLIC",
    "address": "kaiama local government education authority primary school, sabon gida, sabon gida",
    "ownership": "STATE/LOCAL GOVERNMENT",
    "school_level": "PRIMARY ONLY",
    "latitude": 10.5834811,
    "longitude": 7.400287199999999
  },
  {
    "name": "KAIAMA LOCAL GOVERNMENT EDUCATION AUTHORITY PRIMARY SCHOOL, SHIRIGWARIA",
    "lga": "KAIAMA",
    "category": "PUBLIC",
    "address": "kaiama local government education authority primary school, shirigwaria, shirigwaria",
    "ownership": "STATE/LOCAL GOVERNMENT",
    "school_level": "ECCDE AND PRIMARY",
    "latitude": 9.6062133,
    "longitude": 3.9419415
  },
  {
    "name": "KAIAMA LOCAL GOVERNMENT EDUCATION AUTHORITY PRIMARY SCHOOL, SONPERE",
    "lga": "KAIAMA",
    "category": "PUBLIC",
    "address": "kaiama local government education authority primary school, sonpere, sonpere",
    "ownership": "STATE/LOCAL GOVERNMENT",
    "school_level": "PRIMARY ONLY",
    "latitude": 9.6062133,
    "longitude": 3.9419415
  },
  {
    "name": "KAIAMA LOCAL GOVERNMENT EDUCATION AUTHORITY PRIMARY SCHOOL, SULADE",
    "lga": "KAIAMA",
    "category": "PUBLIC",
    "address": "kaiama local government education authority primary school, sulade, sulade",
    "ownership": "STATE/LOCAL GOVERNMENT",
    "school_level": "PRIMARY ONLY",
    "latitude": 9.6062133,
    "longitude": 3.9419415
  },
  {
    "name": "KAIAMA LOCAL GOVERNMENT EDUCATION AUTHORITY PRIMARY SCHOOL, T. GARUWA",
    "lga": "KAIAMA",
    "category": "PUBLIC",
    "address": "kaiama local government education authority primary school, t. garuwa, yungan-garuwa",
    "ownership": "STATE/LOCAL GOVERNMENT",
    "school_level": "PRIMARY ONLY",
    "latitude": 9.6062133,
    "longitude": 3.9419415
  },
  {
    "name": "KAIAMA LOCAL GOVERNMENT EDUCATION AUTHORITY PRIMARY SCHOOL, T. MAJE",
    "lga": "KAIAMA",
    "category": "PUBLIC",
    "address": "kaiama local government education authority primary school, t. maje, tunga maje",
    "ownership": "STATE/LOCAL GOVERNMENT",
    "school_level": "PRIMARY ONLY",
    "latitude": 9.0556272,
    "longitude": 7.1924968
  },
  {
    "name": "KAIAMA LOCAL GOVERNMENT EDUCATION AUTHORITY NOMADIC PRIMARY SCHOOL, T. SAMBO",
    "lga": "KAIAMA",
    "category": "PUBLIC",
    "address": "kaiama local government education authority nomadic primary school, t. sambo, village",
    "ownership": "STATE/LOCAL GOVERNMENT",
    "school_level": "PRIMARY ONLY",
    "latitude": 9.6062133,
    "longitude": 3.9419415
  },
  {
    "name": "KAIAMA LOCAL GOVERNMENT EDUCATION AUTHORITY PRIMARY SCHOOL, T. ZABARUWA",
    "lga": "KAIAMA",
    "category": "PUBLIC",
    "address": "kaiama local government education authority primary school, t. zabaruwa, tungal zabaruwa",
    "ownership": "STATE/LOCAL GOVERNMENT",
    "school_level": "PRIMARY ONLY",
    "latitude": 16.6936777,
    "longitude": 75.295298
  },
  {
    "name": "KAIAMA LOCAL GOVERNMENT EDUCATION AUTHORITY PRIMARY SCHOOL, TANA LAFIA",
    "lga": "KAIAMA",
    "category": "PUBLIC",
    "address": "kaiama local government education authority primary school, tana lafia, tanalafia",
    "ownership": "STATE/LOCAL GOVERNMENT",
    "school_level": "PRIMARY ONLY",
    "latitude": 9.6062133,
    "longitude": 3.9419415
  },
  {
    "name": "KAIAMA LOCAL GOVERNMENT EDUCATION AUTHORITY PRIMARY SCHOOL, TESE",
    "lga": "KAIAMA",
    "category": "PUBLIC",
    "address": "kaiama local government education authority primary school, tese, tese",
    "ownership": "STATE/LOCAL GOVERNMENT",
    "school_level": "PRIMARY ONLY",
    "latitude": 9.6062133,
    "longitude": 3.9419415
  },
  {
    "name": "KAIAMA LOCAL GOVERNMENT EDUCATION AUTHORITY PRIMARY SCHOOL, TESHIN LEDA",
    "lga": "KAIAMA",
    "category": "PUBLIC",
    "address": "kaiama local government education authority primary school, teshin leda, teshin leda",
    "ownership": "STATE/LOCAL GOVERNMENT",
    "school_level": "PRIMARY ONLY",
    "latitude": 9.6062133,
    "longitude": 3.9419415
  },
  {
    "name": "KAIAMA LOCAL GOVERNMENT EDUCATION AUTHORITY PRIMARY SCHOOL, TUNGA ABOKI",
    "lga": "KAIAMA",
    "category": "PUBLIC",
    "address": "kaiama local government education authority primary school, tunga aboki, tunga aboki",
    "ownership": "STATE/LOCAL GOVERNMENT",
    "school_level": "ECCDE AND PRIMARY",
    "latitude": 9.6062133,
    "longitude": 3.9419415
  },
  {
    "name": "KAIAMA LOCAL GOVERNMENT EDUCATION AUTHORITY PRIMARY SCHOOL, TUNGA BICHI",
    "lga": "KAIAMA",
    "category": "PUBLIC",
    "address": "kaiama local government education authority primary school, tunga bichi, tunga bichi",
    "ownership": "STATE/LOCAL GOVERNMENT",
    "school_level": "PRIMARY ONLY",
    "latitude": 9.6062133,
    "longitude": 3.9419415
  },
  {
    "name": "KAIAMA LOCAL GOVERNMENT EDUCATION AUTHORITY PRIMARY SCHOOL, TUNGA JULI",
    "lga": "KAIAMA",
    "category": "PUBLIC",
    "address": "kaiama local government education authority primary school, tunga juli, tunga juli",
    "ownership": "STATE/LOCAL GOVERNMENT",
    "school_level": "PRIMARY ONLY",
    "latitude": 9.0805913,
    "longitude": 4.0931865
  },
  {
    "name": "KAIAMA LOCAL GOVERNMENT EDUCATION AUTHORITY PRIMARY SCHOOL, TUNGA LABARAN",
    "lga": "KAIAMA",
    "category": "PUBLIC",
    "address": "kaiama local government education authority primary school, tunga labaran, tunga labaran",
    "ownership": "STATE/LOCAL GOVERNMENT",
    "school_level": "PRIMARY ONLY",
    "latitude": 9.6062133,
    "longitude": 3.9419415
  },
  {
    "name": "KAIAMA LOCAL GOVERNMENT EDUCATION AUTHORITY PRIMARY SCHOOL, VENRA",
    "lga": "KAIAMA",
    "category": "PUBLIC",
    "address": "kaiama local government education authority primary school, venra, venra",
    "ownership": "STATE/LOCAL GOVERNMENT",
    "school_level": "ECCDE AND PRIMARY",
    "latitude": 9.6062133,
    "longitude": 3.9419415
  },
  {
    "name": "KAIAMA LOCAL GOVERNMENT EDUCATION AUTHORITY PRIMARY SCHOOL, WORO",
    "lga": "KAIAMA",
    "category": "PUBLIC",
    "address": "kaiama local government education authority primary school, woro, village",
    "ownership": "STATE/LOCAL GOVERNMENT",
    "school_level": "PRIMARY ONLY",
    "latitude": 9.6062133,
    "longitude": 3.9419415
  },
  {
    "name": "KAIAMA LOCAL GOVERNMENT EDUCATION AUTHORITY PRIMARY SCHOOL, WURUMAKOTO",
    "lga": "KAIAMA",
    "category": "PUBLIC",
    "address": "kaiama local government education authority primary school, wurumakoto, wurumakoto",
    "ownership": "STATE/LOCAL GOVERNMENT",
    "school_level": "PRIMARY ONLY",
    "latitude": 9.6062133,
    "longitude": 3.9419415
  },
  {
    "name": "KAIAMA LOCAL GOVERNMENT EDUCATION AUTHORITY PRIMARY SCHOOL, ZEKANA",
    "lga": "KAIAMA",
    "category": "PUBLIC",
    "address": "kaiama local government education authority primary school, zekana, zekana",
    "ownership": "STATE/LOCAL GOVERNMENT",
    "school_level": "PRIMARY ONLY",
    "latitude": 9.6062133,
    "longitude": 3.9419415
  },
  {
    "name": "KAIAMA LOCAL GOVERNMENT EDUCATION AUTHORITY PRIMARY SCHOOL,ANUOLUWAPO",
    "lga": "KAIAMA",
    "category": "PUBLIC",
    "address": "kaiama local government education authority primary school,anuoluwapo, anuoluwapo",
    "ownership": "STATE/LOCAL GOVERNMENT",
    "school_level": "PRIMARY ONLY",
    "latitude": 9.6062133,
    "longitude": 3.9419415
  },
  {
    "name": "KAIAMA LOCAL GOVERNMENT EDUCATION AUTHORITY PRIMARY SCHOOL,KAAGBONA",
    "lga": "KAIAMA",
    "category": "PUBLIC",
    "address": "kaiama local government education authority primary school,kaagbona, kaagbona",
    "ownership": "STATE/LOCAL GOVERNMENT",
    "school_level": "PRIMARY ONLY",
    "latitude": 9.6062133,
    "longitude": 3.9419415
  },
  {
    "name": "KAIAMA LOCAL GOVERNMENT EDUCATION AUTHORITY PRIMARYSCHOOL, LERE",
    "lga": "KAIAMA",
    "category": "PUBLIC",
    "address": "kaiama local government education authority primaryschool, lere, lere",
    "ownership": "STATE/LOCAL GOVERNMENT",
    "school_level": "PRIMARY ONLY",
    "latitude": 9.6062133,
    "longitude": 3.9419415
  },
  {
    "name": "KAIAMA LOCAL GOVERNMENT EDUCATION AUTHORITY PRIMARY CH MOSHE GADA",
    "lga": "KAIAMA",
    "category": "PUBLIC",
    "address": "kaiama local government education authority primary ch moshe gada, village",
    "ownership": "STATE/LOCAL GOVERNMENT",
    "school_level": "PRIMARY ONLY",
    "latitude": 9.6062133,
    "longitude": 3.9419415
  },
  {
    "name": "KUNFAYAKUN  ISLAMIC NURSERY AND PRIMARY SCHOOL, KAIAMA",
    "lga": "KAIAMA",
    "category": "PRIVATE",
    "address": "kunfayakun  islamic nursery and primary school, kaiama, kaiama",
    "ownership": "STATE/LOCAL GOVERNMENT",
    "school_level": "ECCDE AND PRIMARY",
    "latitude": 9.6062133,
    "longitude": 3.9419415
  },
  {
    "name": "OLA INTERNATIONAL NURSERY AND PRIMARY SCHOOL, KAIAMA",
    "lga": "KAIAMA",
    "category": "PRIVATE",
    "address": "ola international nursery and primary school, kaiama, kaiama",
    "ownership": "PRIVATE PROPRIETOR",
    "school_level": "ECCDE AND PRIMARY",
    "latitude": 9.6062133,
    "longitude": 3.9419415
  },
  {
    "name": "ROYAL ICON NURSERY AND PRIMARY SCHOOL VENRA",
    "lga": "KAIAMA",
    "category": "PRIVATE",
    "address": "royal icon nursery and primary school venra, venra",
    "ownership": "PRIVATE PROPRIETOR",
    "school_level": "ECCDE AND PRIMARY",
    "latitude": 12.25238,
    "longitude": 79.0727532
  },
  {
    "name": "THE LIGHT NURSERY AND PRIMARY SCHOOL,GWARIA",
    "lga": "KAIAMA",
    "category": "PRIVATE",
    "address": "the light nursery and primary school,gwaria, gwaria",
    "ownership": "PRIVATE PROPRIETOR",
    "school_level": "ECCDE AND PRIMARY",
    "latitude": 9.6370816,
    "longitude": 6.642433
  },
  {
    "name": "SAM NURSERY AND PRIMARY SCHOOL",
    "lga": "ILORIN SOUTH",
    "category": "PRIVATE",
    "address": "sam nursery and primary school, olorunsogo upper gaa-akanbi",
    "ownership": "PRIVATE PROPRIETOR",
    "school_level": "ECCDE AND PRIMARY",
    "latitude": 8.4907053,
    "longitude": 4.5521274
  },
  {
    "name": "SEED OF LIFE ACADEMY NURSTARY AND PRIMARY SCHOOL",
    "lga": "ILORIN SOUTH",
    "category": "PRIVATE",
    "address": "seed of life academy nurstary and primary school, ilorin",
    "ownership": "PRIVATE PROPRIETOR",
    "school_level": "ECCDE AND PRIMARY",
    "latitude": 8.5373356,
    "longitude": 4.5443923
  },
  {
    "name": "SHUBANUL-ISLAM LOCAL GOVERNMENT EDUCATION AUTHORITY PRIMARY SCHOOL, ILORIN SOUTH",
    "lga": "ILORIN SOUTH",
    "category": "PUBLIC",
    "address": "shubanul-islam local government education authority primary school, ilorin south, ilorin",
    "ownership": "STATE/LOCAL GOVERNMENT",
    "school_level": "ECCDE AND PRIMARY",
    "latitude": 8.434660899999999,
    "longitude": 4.6657027
  },
  {
    "name": "SOBI-ALAGBADO LOCAL GOVERNMENT EDUCATION AUTHORITY PRIMARY SCHOOL, SOBI-ALAGBADO",
    "lga": "ILORIN SOUTH",
    "category": "PUBLIC",
    "address": "sobi-alagbado local government education authority primary school, sobi-alagbado, town",
    "ownership": "STATE/LOCAL GOVERNMENT",
    "school_level": "ECCDE AND PRIMARY",
    "latitude": 6.6584403,
    "longitude": 3.2633918
  },
  {
    "name": "SOLID KIDDIES ACADEMY,",
    "lga": "ILORIN SOUTH",
    "category": "PRIVATE",
    "address": "solid kiddies academy,, agbabiaka gaa-akanbi ilorin",
    "ownership": "PRIVATE PROPRIETOR",
    "school_level": "ECCDE AND PRIMARY",
    "latitude": 8.453373,
    "longitude": 4.6206834
  },
  {
    "name": "ST MARYS INTERNATIONAL SCHOOL",
    "lga": "ILORIN SOUTH",
    "category": "PRIVATE",
    "address": "st marys international school, ilorin",
    "ownership": "PRIVATE PROPRIETOR",
    "school_level": "ECCDE AND PRIMARY",
    "latitude": 8.5373356,
    "longitude": 4.5443923
  },
  {
    "name": "ST. MICHEAL A LOCAL GOVERNMENT EDUCATION AUTHORITY PRIMARY SCHOOL, ILORIN SOUTH",
    "lga": "ILORIN SOUTH",
    "category": "PUBLIC",
    "address": "st. micheal a local government education authority primary school, ilorin south, ilorin",
    "ownership": "STATE/LOCAL GOVERNMENT",
    "school_level": "ECCDE AND PRIMARY",
    "latitude": 8.481067399999999,
    "longitude": 4.6734551
  },
  {
    "name": "ST. MICHEAL B LOCAL GOVERNMENT EDUCATION AUTHORITY PRIMARY SCHOOL, ILORIN SOUTH",
    "lga": "ILORIN SOUTH",
    "category": "PUBLIC",
    "address": "st. micheal b local government education authority primary school, ilorin south, ilorin",
    "ownership": "STATE/LOCAL GOVERNMENT",
    "school_level": "ECCDE AND PRIMARY",
    "latitude": 8.481067399999999,
    "longitude": 4.6734551
  },
  {
    "name": "ST. WILLIAMS LOCAL GOVERNMENT EDUCATION AUTHORITY PRIMARY SCHOOL, ILORIN SOUTH",
    "lga": "ILORIN SOUTH",
    "category": "PUBLIC",
    "address": "st. williams local government education authority primary school, ilorin south, ilorin",
    "ownership": "STATE/LOCAL GOVERNMENT",
    "school_level": "ECCDE AND PRIMARY",
    "latitude": 8.5373356,
    "longitude": 4.5443923
  },
  {
    "name": "STARCHILD ACADEMY,ILORIN",
    "lga": "ILORIN SOUTH",
    "category": "PRIVATE",
    "address": "starchild academy,ilorin, ilorin",
    "ownership": "PRIVATE PROPRIETOR",
    "school_level": "ECCDE AND PRIMARY",
    "latitude": 8.5373356,
    "longitude": 4.5443923
  },
  {
    "name": "TANKE OKE ODO LOCAL GOVERNMENT EDUCATION AUTHORITY PRIMARY SCHOOL",
    "lga": "ILORIN SOUTH",
    "category": "PUBLIC",
    "address": "tanke oke odo local government education authority primary school, jalala/gago",
    "ownership": "STATE/LOCAL GOVERNMENT",
    "school_level": "ECCDE AND PRIMARY",
    "latitude": 6.626290399999999,
    "longitude": 3.2835137
  },
  {
    "name": "TENDERFOOT NURSERY AND PRIMARY SCHOOL",
    "lga": "ILORIN SOUTH",
    "category": "PRIVATE",
    "address": "tenderfoot nursery and primary school, town",
    "ownership": "PRIVATE PROPRIETOR",
    "school_level": "ECCDE AND PRIMARY",
    "latitude": 8.489989399999999,
    "longitude": 4.5981257
  },
  {
    "name": "THE APOSTOLIC CHURCH NURSERY AND PRIMARY SCHOOL",
    "lga": "ILORIN SOUTH",
    "category": "PRIVATE",
    "address": "the apostolic church nursery and primary school, ilorin",
    "ownership": "PRIVATE PROPRIETOR",
    "school_level": "ECCDE AND PRIMARY",
    "latitude": 8.4911827,
    "longitude": 4.5108862
  },
  {
    "name": "TOP KLASS NURSERY AND PRIMARY SCHOOL,AGBANKA",
    "lga": "ILORIN SOUTH",
    "category": "PRIVATE",
    "address": "top klass nursery and primary school,agbanka, kilanko",
    "ownership": "PRIVATE PROPRIETOR",
    "school_level": "ECCDE AND PRIMARY",
    "latitude": 8.4468114,
    "longitude": 4.6071829
  },
  {
    "name": "UNIQUE NURSERY AND PRIMARY SCHOOL ILORIN",
    "lga": "ILORIN SOUTH",
    "category": "PRIVATE",
    "address": "unique nursery and primary school ilorin, ilorin",
    "ownership": "PRIVATE PROPRIETOR",
    "school_level": "ECCDE AND PRIMARY",
    "latitude": 8.5022589,
    "longitude": 4.5302508
  },
  {
    "name": "UNITED LOCAL GOVERNMENT EDUCATION AUTHORITY PRIMARY SCHOOL, TAIWO UNITED TAIWO",
    "lga": "ILORIN SOUTH",
    "category": "PUBLIC",
    "address": "united local government education authority primary school, taiwo united taiwo, ilorin",
    "ownership": "STATE/LOCAL GOVERNMENT",
    "school_level": "ECCDE AND PRIMARY",
    "latitude": 8.5373356,
    "longitude": 4.5443923
  },
  {
    "name": "WISDOM NURSERY AND PRIMARY SCHOOL",
    "lga": "ILORIN SOUTH",
    "category": "PRIVATE",
    "address": "wisdom nursery and primary school, faagba alagbado",
    "ownership": "PRIVATE PROPRIETOR",
    "school_level": "ECCDE AND PRIMARY",
    "latitude": 6.6584403,
    "longitude": 3.2633918
  },
  {
    "name": "HEPHZIBAH NURSERY AND PRIMARY SCHOOL ",
    "lga": "ILORIN SOUTH",
    "category": "PRIVATE",
    "address": "hephzibah nursery and primary school , kulende estate, ilorin ",
    "ownership": "PRIVATE PROPRIETOR",
    "school_level": "ECCDE AND PRIMARY",
    "latitude": 8.5373356,
    "longitude": 4.5443923
  },
  {
    "name": "TRIUMPH ISLAMIC MODEL SCHOOL ",
    "lga": "ILORIN SOUTH",
    "category": "PRIVATE",
    "address": "triumph islamic model school , oke andi",
    "ownership": "PRIVATE PROPRIETOR",
    "school_level": "ECCDE AND PRIMARY",
    "latitude": 8.5186078,
    "longitude": 4.5945718
  },
  {
    "name": "AL-WAHYAIN INTERNATIONAL ACADEMY ",
    "lga": "ILORIN SOUTH",
    "category": "PRIVATE",
    "address": "al-wahyain international academy , ilorin",
    "ownership": "PRIVATE PROPRIETOR",
    "school_level": "ECCDE AND PRIMARY",
    "latitude": 8.483642,
    "longitude": 4.5579774
  },
  {
    "name": "FIRST ECWA NURSERY AND PRIMARY SCHOOL ",
    "lga": "ILORIN SOUTH",
    "category": "PRIVATE",
    "address": "first ecwa nursery and primary school , ilorin",
    "ownership": "PRIVATE PROPRIETOR",
    "school_level": "ECCDE AND PRIMARY",
    "latitude": 8.4624095,
    "longitude": 4.5770067
  },
  {
    "name": "CRYSTAL MODEL NURSERY AND PRIMARY SCHOOL ",
    "lga": "ILORIN SOUTH",
    "category": "PRIVATE",
    "address": "crystal model nursery and primary school , gaa akanbi ilorin",
    "ownership": "PRIVATE PROPRIETOR",
    "school_level": "ECCDE AND PRIMARY",
    "latitude": 8.4670499,
    "longitude": 4.5780987
  },
  {
    "name": "FIRST CLASS NURSERY AND PRIMARY SCHOOL ",
    "lga": "ILORIN SOUTH",
    "category": "PRIVATE",
    "address": "first class nursery and primary school , ilorin",
    "ownership": "PRIVATE PROPRIETOR",
    "school_level": "ECCDE AND PRIMARY",
    "latitude": 8.4902316,
    "longitude": 4.5537005
  },
  {
    "name": "TAAWUN  SCHOOL OF TAHAFIZ",
    "lga": "ILORIN SOUTH",
    "category": "PRIVATE",
    "address": "taawun  school of tahafiz, ilorin ",
    "ownership": "PRIVATE PROPRIETOR",
    "school_level": "ECCDE AND PRIMARY",
    "latitude": 8.5373356,
    "longitude": 4.5443923
  },
  {
    "name": "ROYAL CHILD NURSERY AND PRIMARY SCHOOL, SANGO",
    "lga": "ILORIN SOUTH",
    "category": "PRIVATE",
    "address": "royal child nursery and primary school, sango, ilorin ",
    "ownership": "PRIVATE PROPRIETOR",
    "school_level": "ECCDE AND PRIMARY",
    "latitude": 8.5022589,
    "longitude": 4.5302508
  },
  {
    "name": "AJIBESIN COMMUNITY LGEA PRIMARY SCHOOL,OGIDI,ILORIN",
    "lga": "ILORIN SOUTH",
    "category": "PUBLIC",
    "address": "ajibesin community lgea primary school,ogidi,ilorin, settlement ",
    "ownership": "STATE/LOCAL GOVERNMENT",
    "school_level": "ECCDE AND PRIMARY",
    "latitude": 8.537279,
    "longitude": 4.5444192
  },
  {
    "name": "AGBARIGIDOMA COMMUNITY LGEA PRIMARY SCHOOL",
    "lga": "ILORIN SOUTH",
    "category": "PUBLIC",
    "address": "agbarigidoma community lgea primary school, town",
    "ownership": "STATE/LOCAL GOVERNMENT",
    "school_level": "ECCDE AND PRIMARY",
    "latitude": 8.0831091,
    "longitude": 4.5862341
  },
  {
    "name": "RAINBOW KIDS NURSERY AND PRIMARY SCHOOL ",
    "lga": "ILORIN SOUTH",
    "category": "PRIVATE",
    "address": "rainbow kids nursery and primary school ,  ganiki, ilorin ",
    "ownership": "PRIVATE PROPRIETOR",
    "school_level": "ECCDE AND PRIMARY",
    "latitude": 8.5373356,
    "longitude": 4.5443923
  },
  {
    "name": "REALIABLE NURSERY AND PRIMARY SCHOOL ",
    "lga": "ILORIN SOUTH",
    "category": "PRIVATE",
    "address": "realiable nursery and primary school , ilorin",
    "ownership": "PRIVATE PROPRIETOR",
    "school_level": "ECCDE AND PRIMARY",
    "latitude": 8.5022589,
    "longitude": 4.5302508
  },
  {
    "name": "DE-KINGS CITY SCHOOL ",
    "lga": "ILORIN SOUTH",
    "category": "PRIVATE",
    "address": "de-kings city school , ilorin",
    "ownership": "PRIVATE PROPRIETOR",
    "school_level": "ECCDE AND PRIMARY",
    "latitude": 8.4958215,
    "longitude": 4.5498702
  },
  {
    "name": "GODS MERCY NURSERY AND PRIMARY SCHOOL",
    "lga": "ILORIN EAST",
    "category": "PRIVATE",
    "address": "gods mercy nursery and primary school, yakuba ilorin",
    "ownership": "PRIVATE PROPRIETOR",
    "school_level": "ECCDE AND PRIMARY",
    "latitude": 8.481708099999999,
    "longitude": 4.536423399999999
  },
  {
    "name": "GOOD MOTHER NURSERY AND PRIMARY SCHOOL,OKE-ADINI ALAGBADO ILORIN",
    "lga": "ILORIN EAST",
    "category": "PRIVATE",
    "address": "good mother nursery and primary school,oke-adini alagbado ilorin, ilorin east",
    "ownership": "PRIVATE PROPRIETOR",
    "school_level": "ECCDE AND PRIMARY",
    "latitude": 8.5373356,
    "longitude": 4.5443923
  },
  {
    "name": "GRACEVILLE INTERNATIONAL NURSERY AND PRIMARY SCHOOL, ILORIN",
    "lga": "ILORIN EAST",
    "category": "PRIVATE",
    "address": "graceville international nursery and primary school, ilorin, ilorin",
    "ownership": "PRIVATE PROPRIETOR",
    "school_level": "ECCDE AND PRIMARY",
    "latitude": 8.5373356,
    "longitude": 4.5443923
  },
  {
    "name": "GREAT EMINENCE SCHOOL, ILORIN",
    "lga": "ILORIN EAST",
    "category": "PRIVATE",
    "address": "great eminence school, ilorin, amilegbe",
    "ownership": "PRIVATE PROPRIETOR",
    "school_level": "ECCDE AND PRIMARY",
    "latitude": 8.4959281,
    "longitude": 4.564263
  },
  {
    "name": "GREAT FOUNDATION NURSERY AND PRIMARY SCHOOL",
    "lga": "ILORIN EAST",
    "category": "PRIVATE",
    "address": "great foundation nursery and primary school, ilorin",
    "ownership": "PRIVATE PROPRIETOR",
    "school_level": "ECCDE AND PRIMARY",
    "latitude": 8.5022589,
    "longitude": 4.5302508
  },
  {
    "name": "HALIMA NURSERY AND PRIMARY SCHOOL,SABURA ILORIN",
    "lga": "ILORIN EAST",
    "category": "PRIVATE",
    "address": "halima nursery and primary school,sabura ilorin, ilorin east",
    "ownership": "PRIVATE PROPRIETOR",
    "school_level": "ECCDE AND PRIMARY",
    "latitude": 8.5373356,
    "longitude": 4.5443923
  },
  {
    "name": "HAWAU MEMORIAL NURSERY AND PRIMARY SCHOOL,SABURA ILORIN",
    "lga": "ILORIN EAST",
    "category": "PRIVATE",
    "address": "hawau memorial nursery and primary school,sabura ilorin, ilorin east",
    "ownership": "PRIVATE PROPRIETOR",
    "school_level": "ECCDE AND PRIMARY",
    "latitude": 8.5373356,
    "longitude": 4.5443923
  },
  {
    "name": "IFELODUN OHAMEJE LOCAL GOVERNMENT EDUCATION AUTHORITY PRIMARY SCHOOL, IFELODUN OHAMEJE",
    "lga": "ILORIN EAST",
    "category": "PUBLIC",
    "address": "ifelodun ohameje local government education authority primary school, ifelodun ohameje, ohameje ifelodun",
    "ownership": "STATE/LOCAL GOVERNMENT",
    "school_level": "ECCDE AND PRIMARY",
    "latitude": 8.5380979,
    "longitude": 5.1432068
  },
  {
    "name": "IFE-OLUWA NURSERY AND PRIMARY SCHOOL, AKEREBIATA ILORIN",
    "lga": "ILORIN EAST",
    "category": "PRIVATE",
    "address": "ife-oluwa nursery and primary school, akerebiata ilorin, ilorin east",
    "ownership": "PRIVATE PROPRIETOR",
    "school_level": "ECCDE AND PRIMARY",
    "latitude": 8.5022589,
    "longitude": 4.5302508
  },
  {
    "name": "IFESOWOPO AJIPONMI LOCAL GOVERNMENT EDUCATION AUTHORITY PRIMARY SCHOOL",
    "lga": "ILORIN EAST",
    "category": "PUBLIC",
    "address": "ifesowopo ajiponmi local government education authority primary school, ajiponmi village",
    "ownership": "STATE/LOCAL GOVERNMENT",
    "school_level": "PRIMARY ONLY",
    "latitude": 7.815781200000001,
    "longitude": 4.402627
  },
  {
    "name": "IPATA A LOCAL GOVERNMENT EDUCATION PRIMARY SCHOOL, IPATA",
    "lga": "ILORIN EAST",
    "category": "PUBLIC",
    "address": "ipata a local government education primary school, ipata, near ipata market ilorin east",
    "ownership": "STATE/LOCAL GOVERNMENT",
    "school_level": "ECCDE AND PRIMARY",
    "latitude": 8.6083453,
    "longitude": 4.789873099999999
  },
  {
    "name": "IPATA B PRIMARY SCHOOL, IPATA",
    "lga": "ILORIN EAST",
    "category": "PUBLIC",
    "address": "ipata b primary school, ipata, ipata ilorin east",
    "ownership": "STATE/LOCAL GOVERNMENT",
    "school_level": "ECCDE AND PRIMARY",
    "latitude": 8.6083453,
    "longitude": 4.789873099999999
  },
  {
    "name": "ISHOLA NURSERY AND PRIMARY SCHOOL ISALE-KOKO OJAGBORO ILORIN",
    "lga": "ILORIN EAST",
    "category": "PRIVATE",
    "address": "ishola nursery and primary school isale-koko ojagboro ilorin, ilorin",
    "ownership": "PRIVATE PROPRIETOR",
    "school_level": "ECCDE AND PRIMARY",
    "latitude": 8.509917399999999,
    "longitude": 4.5665869
  },
  {
    "name": "ISTIJABAH ISMAMIC NURSERY AND PRIMARY SCHOOL.ISALE-KOKO, ILORIN",
    "lga": "ILORIN EAST",
    "category": "PRIVATE",
    "address": "istijabah ismamic nursery and primary school.isale-koko, ilorin, ilorin",
    "ownership": "PRIVATE PROPRIETOR",
    "school_level": "ECCDE AND PRIMARY",
    "latitude": 8.5022589,
    "longitude": 4.5302508
  },
  {
    "name": "ISWAB NURSERY AND PRIMARY OJAGBORO ILORIN",
    "lga": "ILORIN EAST",
    "category": "PRIVATE",
    "address": "iswab nursery and primary ojagboro ilorin, ilorin",
    "ownership": "PRIVATE PROPRIETOR",
    "school_level": "ECCDE AND PRIMARY",
    "latitude": 8.5004812,
    "longitude": 4.5602851
  },
  {
    "name": "JIBSON NURSERY AND PRIMARY SCHOOL, AKEREBIATA ILORIN",
    "lga": "ILORIN EAST",
    "category": "PRIVATE",
    "address": "jibson nursery and primary school, akerebiata ilorin, ilorin east",
    "ownership": "PRIVATE PROPRIETOR",
    "school_level": "ECCDE AND PRIMARY",
    "latitude": 8.5022589,
    "longitude": 4.5302508
  },
  {
    "name": "JOSTEN GLORIOUS FUTURE ACADEMY",
    "lga": "ILORIN EAST",
    "category": "PRIVATE",
    "address": "josten glorious future academy, ilorin",
    "ownership": "PRIVATE PROPRIETOR",
    "school_level": "ECCDE AND PRIMARY",
    "latitude": 8.5373356,
    "longitude": 4.5443923
  },
  {
    "name": "KARUMA A LOCAL GOVERNMENT EDUCATION AUTHORITY PRIMARY SCHOOL, KARUMA",
    "lga": "ILORIN EAST",
    "category": "PUBLIC",
    "address": "karuma a local government education authority primary school, karuma, karuma ilorin",
    "ownership": "STATE/LOCAL GOVERNMENT",
    "school_level": "ECCDE AND PRIMARY",
    "latitude": 8.5373356,
    "longitude": 4.5443923
  },
  {
    "name": "KARUMA B LOCAL GOVERNMENT EDUCATION AUTHORITY PRIMARY SCHOOL, KARUMA",
    "lga": "ILORIN EAST",
    "category": "PUBLIC",
    "address": "karuma b local government education authority primary school, karuma, karuma ilorin",
    "ownership": "STATE/LOCAL GOVERNMENT",
    "school_level": "ECCDE AND PRIMARY",
    "latitude": 8.5373356,
    "longitude": 4.5443923
  },
  {
    "name": "KHALEEL-UR-RAHMAN NURSERY AND PRIMARY SCHOOL, AKEREBIATA ILORIN",
    "lga": "ILORIN EAST",
    "category": "PRIVATE",
    "address": "khaleel-ur-rahman nursery and primary school, akerebiata ilorin, ilorin east",
    "ownership": "PRIVATE PROPRIETOR",
    "school_level": "ECCDE AND PRIMARY",
    "latitude": 8.5022589,
    "longitude": 4.5302508
  },
  {
    "name": "KURE-OJA LOCAL GOVERNMENT EDUCATION AUTHORITY PRIMARY SCHOOL, KURE-OJA",
    "lga": "ILORIN EAST",
    "category": "PUBLIC",
    "address": "kure-oja local government education authority primary school, kure-oja, kure-oja",
    "ownership": "STATE/LOCAL GOVERNMENT",
    "school_level": "PRIMARY ONLY",
    "latitude": 58.69446819999999,
    "longitude": 26.3700444
  },
  {
    "name": "KWARA POLYTECHNIC LOCAL GOVERNMENT EDUCATION AUTHORITY PRIMARY SCHOOL, ILORIN EAST",
    "lga": "ILORIN EAST",
    "category": "PUBLIC",
    "address": "kwara polytechnic local government education authority primary school, ilorin east, kwara poly",
    "ownership": "PRIVATE PROPRIETOR",
    "school_level": "ECCDE AND PRIMARY",
    "latitude": 8.5433439,
    "longitude": 4.634256
  },
  {
    "name": "KWARA STATE SCHOOL FOR SPECIAL NEEDS PRIMARY ",
    "lga": "ILORIN EAST",
    "category": "PUBLIC",
    "address": "kwara state school for special needs primary , ilorin town",
    "ownership": "STATE/LOCAL GOVERNMENT",
    "school_level": "ECCDE AND PRIMARY",
    "latitude": 8.5348386,
    "longitude": 4.6122301
  },
  {
    "name": "LESSOS NURSERY AND PRIMARY SCHOOL",
    "lga": "ILORIN EAST",
    "category": "PRIVATE",
    "address": "lessos nursery and primary school, orisunbare",
    "ownership": "PRIVATE PROPRIETOR",
    "school_level": "ECCDE AND PRIMARY",
    "latitude": 0.1850216,
    "longitude": 35.3383954
  },
  {
    "name": "LIBERTY ICONS ISLAMIC SCHOOL",
    "lga": "ILORIN EAST",
    "category": "PRIVATE",
    "address": "liberty icons islamic school, apata-yakuba",
    "ownership": "PRIVATE PROPRIETOR",
    "school_level": "ECCDE AND PRIMARY",
    "latitude": 8.5490706,
    "longitude": 4.6521386
  },
  {
    "name": "LIBERTY NURSERY AND PRIMARY SCHOOL, SOBI AKEREBIATA",
    "lga": "ILORIN EAST",
    "category": "PRIVATE",
    "address": "liberty nursery and primary school, sobi akerebiata, ilorin east",
    "ownership": "PRIVATE PROPRIETOR",
    "school_level": "ECCDE AND PRIMARY",
    "latitude": 8.6083453,
    "longitude": 4.789873099999999
  },
  {
    "name": "LOVETH NURSERY AND PRIMARY SCHOOL KARUMA ILORIN",
    "lga": "ILORIN EAST",
    "category": "PRIVATE",
    "address": "loveth nursery and primary school karuma ilorin, karuma ilorin",
    "ownership": "PRIVATE PROPRIETOR",
    "school_level": "ECCDE AND PRIMARY",
    "latitude": 8.5022589,
    "longitude": 4.5302508
  },
  {
    "name": "MAGAJI ARE PRIMARY SCHOOL, ILORIN EAST",
    "lga": "ILORIN EAST",
    "category": "PUBLIC",
    "address": "magaji are primary school, ilorin east, amule ilorin",
    "ownership": "STATE/LOCAL GOVERNMENT",
    "school_level": "ECCDE AND PRIMARY",
    "latitude": 8.4984874,
    "longitude": 4.5474757
  },
  {
    "name": "MAKANA ALIYA ACADEMY NURSERRY AND PRIMARY SCHOOL, OLD SHAO GARAGE",
    "lga": "ILORIN EAST",
    "category": "PRIVATE",
    "address": "makana aliya academy nurserry and primary school, old shao garage, ilorin east",
    "ownership": "PRIVATE PROPRIETOR",
    "school_level": "ECCDE AND PRIMARY",
    "latitude": 8.5063987,
    "longitude": 4.5552063
  },
  {
    "name": "MARAFA AIYETORO LOCAL GOVERNMENT EDUCATION AUTHORITY PRIMARY SCHOOL, MARAFA AIYETORO",
    "lga": "ILORIN EAST",
    "category": "PUBLIC",
    "address": "marafa aiyetoro local government education authority primary school, marafa aiyetoro, marafa aiyetoro",
    "ownership": "STATE/LOCAL GOVERNMENT",
    "school_level": "ECCDE AND PRIMARY",
    "latitude": -3.0314648,
    "longitude": 39.9555631
  },
  {
    "name": "MARKAZ NURUL HAQI ISLAMIC NURSERY AND PRIMARY SCHOOL,SHAO ROAD, ILORIN",
    "lga": "ILORIN EAST",
    "category": "PRIVATE",
    "address": "markaz nurul haqi islamic nursery and primary school,shao road, ilorin, ilorin east",
    "ownership": "PRIVATE PROPRIETOR",
    "school_level": "ECCDE AND PRIMARY",
    "latitude": 8.5373356,
    "longitude": 4.5443923
  },
  {
    "name": "MERCY NURSERY AND PRIMARY  SCHOOL, SOBI ROAD AKEREBIATA ILORIN",
    "lga": "ILORIN EAST",
    "category": "PRIVATE",
    "address": "mercy nursery and primary  school, sobi road akerebiata ilorin, ilorin east",
    "ownership": "PRIVATE PROPRIETOR",
    "school_level": "ECCDE AND PRIMARY",
    "latitude": 8.5022589,
    "longitude": 4.5302508
  },
  {
    "name": "MERIT NURSERY AND PRIMARY SCHOOL, SOBI AKEREBIATA",
    "lga": "ILORIN EAST",
    "category": "PRIVATE",
    "address": "merit nursery and primary school, sobi akerebiata, ilorin",
    "ownership": "PRIVATE PROPRIETOR",
    "school_level": "ECCDE AND PRIMARY",
    "latitude": 8.5373356,
    "longitude": 4.5443923
  },
  {
    "name": "MOBOLAJI OLOKUTA PROGRESSIVE NURSERY AND PRIMARY SCHOOL",
    "lga": "ILORIN EAST",
    "category": "PRIVATE",
    "address": "mobolaji olokuta progressive nursery and primary school, ilorin",
    "ownership": "PRIVATE PROPRIETOR",
    "school_level": "ECCDE AND PRIMARY",
    "latitude": 8.4791104,
    "longitude": 4.5469127
  },
  {
    "name": "MOBOLAJOKE NURSERY AND PRIMARY SCHOOL, MAGAJI ARE, ILORIN",
    "lga": "ILORIN EAST",
    "category": "PRIVATE",
    "address": "mobolajoke nursery and primary school, magaji are, ilorin, ilorin east",
    "ownership": "PRIVATE PROPRIETOR",
    "school_level": "ECCDE AND PRIMARY",
    "latitude": 8.5022589,
    "longitude": 4.5302508
  },
  {
    "name": "MOTHERS CHOICE NURSERY AND PRIMARY SCHOOL, ADUALERE",
    "lga": "ILORIN EAST",
    "category": "PRIVATE",
    "address": "mothers choice nursery and primary school, adualere, ilorin",
    "ownership": "PRIVATE PROPRIETOR",
    "school_level": "ECCDE AND PRIMARY",
    "latitude": 8.5022589,
    "longitude": 4.5302508
  },
  {
    "name": "MUFTAU ISLAMIC NURSERY AND PRIMARY SCHOOL, ALAWONLA ILORIN",
    "lga": "ILORIN EAST",
    "category": "PRIVATE",
    "address": "muftau islamic nursery and primary school, alawonla ilorin, ilorin east",
    "ownership": "PRIVATE PROPRIETOR",
    "school_level": "ECCDE AND PRIMARY",
    "latitude": 8.5022589,
    "longitude": 4.5302508
  },
  {
    "name": "MUSLIM COMMUNITY LOCAL GOVERNMENT EDUCATION AUTHORITY SCHOOL, OKE-ONIGBIN",
    "lga": "ISIN",
    "category": "PUBLIC",
    "address": "muslim community local government education authority school, oke-onigbin, oke-onigbin",
    "ownership": "COMMUNITY",
    "school_level": "ECCDE AND PRIMARY",
    "latitude": 8.2217893,
    "longitude": 4.998745899999999
  },
  {
    "name": "MUSLIM COMMUNITY LOCAL GOVERNMENT EDUCATION AUTHORITY SCHOOL, PAMO-ISIN",
    "lga": "ISIN",
    "category": "PUBLIC",
    "address": "muslim community local government education authority school, pamo-isin, pamo-isin",
    "ownership": "STATE/LOCAL GOVERNMENT",
    "school_level": "ECCDE AND PRIMARY",
    "latitude": 8.2921947,
    "longitude": 5.0377529
  },
  {
    "name": "NOMADIC LOCAL GOVERNMENT EDUCATION AUTHORITY SCHOOL GAA ADELE, PAMO-ISIN",
    "lga": "ISIN",
    "category": "PUBLIC",
    "address": "nomadic local government education authority school gaa adele, pamo-isin, gaa adele pamo-isin",
    "ownership": "STATE/LOCAL GOVERNMENT",
    "school_level": "ECCDE AND PRIMARY",
    "latitude": 8.2921947,
    "longitude": 5.0377529
  },
  {
    "name": "NOMADIC LOCAL GOVERNMENT EDUCATION AUTHORITY SCHOOL GAA BABA MERO, ISANLU-ISIN",
    "lga": "ISIN",
    "category": "PUBLIC",
    "address": "nomadic local government education authority school gaa baba mero, isanlu-isin, gaa baba mero isanlu-isin",
    "ownership": "STATE/LOCAL GOVERNMENT",
    "school_level": "ECCDE AND PRIMARY",
    "latitude": 8.230272099999999,
    "longitude": 5.083295199999999
  },
  {
    "name": "NOMADIC LOCAL GOVERNMENT EDUCATION AUTHORITY SCHOOL GAA BELLO, ISANLU-ISIN",
    "lga": "ISIN",
    "category": "PUBLIC",
    "address": "nomadic local government education authority school gaa bello, isanlu-isin, gaa bello isanlu-isin",
    "ownership": "STATE/LOCAL GOVERNMENT",
    "school_level": "PRIMARY ONLY",
    "latitude": 8.230272099999999,
    "longitude": 5.083295199999999
  },
  {
    "name": "NOMADIC LOCAL GOVERNMENT EDUCATION AUTHORITY SCHOOL GAA JIMOH, IJARA-ISIN",
    "lga": "ISIN",
    "category": "PUBLIC",
    "address": "nomadic local government education authority school gaa jimoh, ijara-isin, gaa jimoh ijara-isin",
    "ownership": "STATE/LOCAL GOVERNMENT",
    "school_level": "ECCDE AND PRIMARY",
    "latitude": 8.2501039,
    "longitude": 5.0234472
  },
  {
    "name": "NOMADIC LOCAL GOVERNMENT EDUCATION AUTHORITY SCHOOL GAA OKE-IGBODO, OLLA",
    "lga": "ISIN",
    "category": "PUBLIC",
    "address": "nomadic local government education authority school gaa oke-igbodo, olla, oke-igbodo olla",
    "ownership": "COMMUNITY",
    "school_level": "ECCDE AND PRIMARY",
    "latitude": 6.2997365,
    "longitude": 6.3704778
  },
  {
    "name": "NOMADIC LOCAL GOVERNMENT EDUCATION AUTHORITY SCHOOL GAA OMIDOYIN, ISANLU-ISIN",
    "lga": "ISIN",
    "category": "PUBLIC",
    "address": "nomadic local government education authority school gaa omidoyin, isanlu-isin, gaa omidoyin isanlu-isin",
    "ownership": "STATE/LOCAL GOVERNMENT",
    "school_level": "ECCDE AND PRIMARY",
    "latitude": 8.230272099999999,
    "longitude": 5.083295199999999
  },
  {
    "name": "ST. ANDREWS ANGLICAN LOCAL GOVERNMENT EDUCATION AUTHORITY SCHOOL, EDIDI",
    "lga": "ISIN",
    "category": "PUBLIC",
    "address": "st. andrews anglican local government education authority school, edidi, edidi",
    "ownership": "OTHERS",
    "school_level": "ECCDE AND PRIMARY",
    "latitude": 8.2333962,
    "longitude": 4.9415848
  },
  {
    "name": "ST. JOSEPHS CAC LOCAL GOVERNMENT EDUCATION AUTHORITY SCHOOL, ISANLU-ISIN",
    "lga": "ISIN",
    "category": "PUBLIC",
    "address": "st. josephs cac local government education authority school, isanlu-isin, isanlu-isin",
    "ownership": "STATE/LOCAL GOVERNMENT",
    "school_level": "ECCDE AND PRIMARY",
    "latitude": 8.230272099999999,
    "longitude": 5.083295199999999
  },
  {
    "name": "NASRUDEEN ISLAMIC MODEL SCHOOL ",
    "lga": "ISIN",
    "category": "PRIVATE",
    "address": "nasrudeen islamic model school , oke-onigbin",
    "ownership": "PRIVATE PROPRIETOR",
    "school_level": "ECCDE AND PRIMARY",
    "latitude": 8.2217893,
    "longitude": 4.998745899999999
  },
  {
    "name": "ILERI-OLUWA NURSERY AND PRIMARY SCHOOL ",
    "lga": "ISIN",
    "category": "PRIVATE",
    "address": "ileri-oluwa nursery and primary school , isanlu isin ",
    "ownership": "PRIVATE PROPRIETOR",
    "school_level": "ECCDE AND PRIMARY",
    "latitude": 8.230272099999999,
    "longitude": 5.083295199999999
  },
  {
    "name": "ADEOLU DAY NURSERY AND PRIMARY SCHOOL ",
    "lga": "ISIN",
    "category": "PRIVATE",
    "address": "adeolu day nursery and primary school , eleyin isin",
    "ownership": "PRIVATE PROPRIETOR",
    "school_level": "ECCDE AND PRIMARY",
    "latitude": 8.1671096,
    "longitude": 5.0487285
  },
  {
    "name": "ALBARIKA NURSERY AND PRIMARY SCHOOL",
    "lga": "KAIAMA",
    "category": "PRIVATE",
    "address": "albarika nursery and primary school, kaiama",
    "ownership": "PRIVATE PROPRIETOR",
    "school_level": "ECCDE AND PRIMARY",
    "latitude": 9.6062133,
    "longitude": 3.9419415
  },
  {
    "name": "BAGIDI KIYARU IV KAIAMA LOCAL GOVERNMENT EDUCATION AUTHORITY PRIMARY SCHOOL,KAIAMA",
    "lga": "KAIAMA",
    "category": "PUBLIC",
    "address": "bagidi kiyaru iv kaiama local government education authority primary school,kaiama, kaiama",
    "ownership": "STATE/LOCAL GOVERNMENT",
    "school_level": "ECCDE AND PRIMARY",
    "latitude": 9.6062133,
    "longitude": 3.9419415
  },
  {
    "name": "FIRST BAPTIST NURSERY AND PRIMARY SCHOOL, KAIAMA",
    "lga": "KAIAMA",
    "category": "PRIVATE",
    "address": "first baptist nursery and primary school, kaiama, kaiama",
    "ownership": "PRIVATE PROPRIETOR",
    "school_level": "ECCDE AND PRIMARY",
    "latitude": 9.6062344,
    "longitude": 3.941829
  },
  {
    "name": "KAIAMA LOCAL GOVERNMENT EDUCATION AUTHORITY NOMADIC PRIMARY SCHOOL, VOBERA",
    "lga": "KAIAMA",
    "category": "PUBLIC",
    "address": "kaiama local government education authority nomadic primary school, vobera, vobera",
    "ownership": "STATE/LOCAL GOVERNMENT",
    "school_level": "PRIMARY ONLY",
    "latitude": 9.6062133,
    "longitude": 3.9419415
  },
  {
    "name": "KAIAMA LOCAL GOVERNMENT EDUCATION AUTHORITY NOMADIC PRIMARY SCHOOL,TENEBO",
    "lga": "KAIAMA",
    "category": "PUBLIC",
    "address": "kaiama local government education authority nomadic primary school,tenebo, tenebo",
    "ownership": "STATE/LOCAL GOVERNMENT",
    "school_level": "PRIMARY ONLY",
    "latitude": 9.6062133,
    "longitude": 3.9419415
  },
  {
    "name": "KAIAMA LOCAL GOVERNMENT EDUCATION AUTHORITY PRIMARY SCHOOL, BABETE",
    "lga": "KAIAMA",
    "category": "PUBLIC",
    "address": "kaiama local government education authority primary school, babete, babete",
    "ownership": "STATE/LOCAL GOVERNMENT",
    "school_level": "PRIMARY ONLY",
    "latitude": 9.6062133,
    "longitude": 3.9419415
  },
  {
    "name": "KAIAMA LOCAL GOVERNMENT EDUCATION AUTHORITY PRIMARY SCHOOL, GWERIA LABE",
    "lga": "KAIAMA",
    "category": "PUBLIC",
    "address": "kaiama local government education authority primary school, gweria labe, gweria labe",
    "ownership": "STATE/LOCAL GOVERNMENT",
    "school_level": "PRIMARY ONLY",
    "latitude": -19.4656559,
    "longitude": 29.8124125
  },
  {
    "name": "KAIAMA LOCAL GOVERNMENT EDUCATION AUTHORITY PRIMARY SCHOOL, MAHUTA",
    "lga": "KAIAMA",
    "category": "PUBLIC",
    "address": "kaiama local government education authority primary school, mahuta, mahuta",
    "ownership": "STATE/LOCAL GOVERNMENT",
    "school_level": "PRIMARY ONLY",
    "latitude": 9.6062133,
    "longitude": 3.9419415
  },
  {
    "name": "KAIAMA LOCAL GOVERNMENT EDUCATION AUTHORITY PRIMARY SCHOOL, TENEBO",
    "lga": "KAIAMA",
    "category": "PUBLIC",
    "address": "kaiama local government education authority primary school, tenebo, tenebo",
    "ownership": "STATE/LOCAL GOVERNMENT",
    "school_level": "ECCDE AND PRIMARY",
    "latitude": 9.6062133,
    "longitude": 3.9419415
  },
  {
    "name": "KAIAMA LOCAL GOVERNMENT EDUCATION AUTHORITY PRIMARY SCHOOL,GWERIA",
    "lga": "KAIAMA",
    "category": "PUBLIC",
    "address": "kaiama local government education authority primary school,gweria, gweria",
    "ownership": "STATE/LOCAL GOVERNMENT",
    "school_level": "ECCDE AND PRIMARY",
    "latitude": -19.4656559,
    "longitude": 29.8124125
  },
  {
    "name": "KAIAMA LOCAL GOVERNMENT EDUCATION AUTHORITY CENTRAL PRIMARY SCHOOL, KAIAMA",
    "lga": "KAIAMA",
    "category": "PUBLIC",
    "address": "kaiama local government education authority central primary school, kaiama, kaiama",
    "ownership": "STATE/LOCAL GOVERNMENT",
    "school_level": "ECCDE AND PRIMARY",
    "latitude": 9.6095591,
    "longitude": 3.9379861
  },
  {
    "name": "KAIAMA LOCAL GOVERNMENT EDUCATION AUTHORITY DEMONSTRATION PRIMARY SCHOOL, KAIAMA",
    "lga": "KAIAMA",
    "category": "PUBLIC",
    "address": "kaiama local government education authority demonstration primary school, kaiama, kaiama",
    "ownership": "STATE/LOCAL GOVERNMENT",
    "school_level": "ECCDE AND PRIMARY",
    "latitude": 9.6076408,
    "longitude": 3.9467724
  },
  {
    "name": "KAIAMA LOCAL GOVERNMENT EDUCATION AUTHORITY ISLAMIYYAH PRIMARY SCHOOL, KAIAMA",
    "lga": "KAIAMA",
    "category": "PUBLIC",
    "address": "kaiama local government education authority islamiyyah primary school, kaiama, kaiama",
    "ownership": "STATE/LOCAL GOVERNMENT",
    "school_level": "ECCDE AND PRIMARY",
    "latitude": 9.6062151,
    "longitude": 3.9419837
  },
  {
    "name": "KAIAMA LOCAL GOVERNMENT EDUCATION AUTHORITY NOMADIC PRIMARY SCHOOL, DARUSALAM",
    "lga": "KAIAMA",
    "category": "PUBLIC",
    "address": "kaiama local government education authority nomadic primary school, darusalam, darusalam",
    "ownership": "STATE/LOCAL GOVERNMENT",
    "school_level": "PRIMARY ONLY",
    "latitude": 9.6062133,
    "longitude": 3.9419415
  },
  {
    "name": "KAIAMA LOCAL GOVERNMENT EDUCATION AUTHORITY NOMADIC PRIMARY SCHOOL, DEGEJI",
    "lga": "KAIAMA",
    "category": "PUBLIC",
    "address": "kaiama local government education authority nomadic primary school, degeji, degeji",
    "ownership": "STATE/LOCAL GOVERNMENT",
    "school_level": "PRIMARY ONLY",
    "latitude": 9.6062133,
    "longitude": 3.9419415
  },
  {
    "name": "KAIAMA LOCAL GOVERNMENT EDUCATION AUTHORITY NOMADIC PRIMARY SCHOOL, GOROBANI",
    "lga": "KAIAMA",
    "category": "PUBLIC",
    "address": "kaiama local government education authority nomadic primary school, gorobani, gorobani",
    "ownership": "STATE/LOCAL GOVERNMENT",
    "school_level": "PRIMARY ONLY",
    "latitude": 9.6062133,
    "longitude": 3.9419415
  },
  {
    "name": "KAIAMA LOCAL GOVERNMENT EDUCATION AUTHORITY NOMADIC PRIMARY SCHOOL, GORODEGE",
    "lga": "KAIAMA",
    "category": "PUBLIC",
    "address": "kaiama local government education authority nomadic primary school, gorodege, gorodege",
    "ownership": "STATE/LOCAL GOVERNMENT",
    "school_level": "PRIMARY ONLY",
    "latitude": 9.6062133,
    "longitude": 3.9419415
  },
  {
    "name": "KAIAMA LOCAL GOVERNMENT EDUCATION AUTHORITY NOMADIC PRIMARY SCHOOL, KANIKOKO",
    "lga": "KAIAMA",
    "category": "PUBLIC",
    "address": "kaiama local government education authority nomadic primary school, kanikoko, kanikoko",
    "ownership": "STATE/LOCAL GOVERNMENT",
    "school_level": "PRIMARY ONLY",
    "latitude": 9.6062133,
    "longitude": 3.9419415
  },
  {
    "name": "KAIAMA LOCAL GOVERNMENT EDUCATION AUTHORITY NOMADIC PRIMARY SCHOOL, KOROKUN",
    "lga": "KAIAMA",
    "category": "PUBLIC",
    "address": "kaiama local government education authority nomadic primary school, korokun, korokun",
    "ownership": "STATE/LOCAL GOVERNMENT",
    "school_level": "PRIMARY ONLY",
    "latitude": 9.6062133,
    "longitude": 3.9419415
  },
  {
    "name": "KAIAMA LOCAL GOVERNMENT EDUCATION AUTHORITY NOMADIC PRIMARY SCHOOL, MALAMI",
    "lga": "KAIAMA",
    "category": "PUBLIC",
    "address": "kaiama local government education authority nomadic primary school, malami, tungan alhaji malami",
    "ownership": "STATE/LOCAL GOVERNMENT",
    "school_level": "PRIMARY ONLY",
    "latitude": 9.6062133,
    "longitude": 3.9419415
  },
  {
    "name": "KAIAMA LOCAL GOVERNMENT EDUCATION AUTHORITY NOMADIC PRIMARY SCHOOL, TUNGA ABOKI",
    "lga": "KAIAMA",
    "category": "PUBLIC",
    "address": "kaiama local government education authority nomadic primary school, tunga aboki, tunga aboki",
    "ownership": "STATE/LOCAL GOVERNMENT",
    "school_level": "PRIMARY ONLY",
    "latitude": 9.6781859,
    "longitude": 3.9582732
  },
  {
    "name": "AMDANAP MODEL COLLEGE KOSUBOSU",
    "lga": "BARUTEN",
    "category": "PRIVATE",
    "address": "amdanap model college kosubosu, kosubosu",
    "ownership": "PRIVATE PROPRIETOR",
    "school_level": "JSS ONLY",
    "latitude": 9.0831729,
    "longitude": 3.3476694
  },
  {
    "name": "BURANDI GROUP OF SCHOOLS, OKUTA",
    "lga": "BARUTEN",
    "category": "PRIVATE",
    "address": "burandi group of schools, okuta, okuta",
    "ownership": "PRIVATE PROPRIETOR",
    "school_level": "JSS ONLY",
    "latitude": -3.373056,
    "longitude": 29.918886
  },
  {
    "name": "CALVARY GRACE MODEL SECONDARY SCHOOL, KOSUBOSU",
    "lga": "BARUTEN",
    "category": "PRIVATE",
    "address": "calvary grace model secondary school, kosubosu, kosubosu",
    "ownership": "PRIVATE PROPRIETOR",
    "school_level": "JSS AND SSS",
    "latitude": 9.0831729,
    "longitude": 3.3476694
  },
  {
    "name": "CORNERSTONE SECONDARY SCHOOL CHIKANDA",
    "lga": "BARUTEN",
    "category": "PRIVATE",
    "address": "cornerstone secondary school chikanda, chikanda",
    "ownership": "PRIVATE PROPRIETOR",
    "school_level": "JSS AND SSS",
    "latitude": 9.8209642,
    "longitude": 3.3656567
  },
  {
    "name": "ECWA JUNIOR SECONDARY SCHOOL, KUBURUFU",
    "lga": "BARUTEN",
    "category": "PRIVATE",
    "address": "ecwa junior secondary school, kuburufu, kuburufu",
    "ownership": "PRIVATE PROPRIETOR",
    "school_level": "JSS ONLY",
    "latitude": 9.707459,
    "longitude": 3.3710143
  },
  {
    "name": "GODS WILL JUNIOR SECONDARY SCHOOL",
    "lga": "BARUTEN",
    "category": "PRIVATE",
    "address": "gods will junior secondary school, kosubosu",
    "ownership": "PRIVATE PROPRIETOR",
    "school_level": "JSS ONLY",
    "latitude": 9.551069,
    "longitude": 3.2269419
  },
  {
    "name": "GOVERNMENT JUNIOR SECONDARY SCHOOL,  YASHIKIRA                                                                  ",
    "lga": "BARUTEN",
    "category": "PUBLIC",
    "address": "government junior secondary school,  yashikira                                                                  , yashikira",
    "ownership": "STATE/LOCAL GOVERNMENT",
    "school_level": "JSS AND SSS",
    "latitude": 9.8378399,
    "longitude": 3.6217802
  },
  {
    "name": "NYSC JUNIOR SECONDARY SCHOOL, KUBURUFU",
    "lga": "BARUTEN",
    "category": "PUBLIC",
    "address": "nysc junior secondary school, kuburufu, kuburufu",
    "ownership": "STATE/LOCAL GOVERNMENT",
    "school_level": "JSS ONLY",
    "latitude": 9.707459,
    "longitude": 3.3710143
  },
  {
    "name": "SANTA MARIA BILINGUA CATHOLIC JUNIOR SECONDARY SCHOOL, KARONJI",
    "lga": "BARUTEN",
    "category": "PRIVATE",
    "address": "santa maria bilingua catholic junior secondary school, karonji, karonji",
    "ownership": "PRIVATE PROPRIETOR",
    "school_level": "JSS ONLY",
    "latitude": 28.4381865,
    "longitude": 78.12651040000002
  },
  {
    "name": "TOPROSE ROYAL ACADEMY SECONDARY SCHOOL,  SINAWU",
    "lga": "BARUTEN",
    "category": "PRIVATE",
    "address": "toprose royal academy secondary school,  sinawu, sinawu",
    "ownership": "PRIVATE PROPRIETOR",
    "school_level": "JSS ONLY",
    "latitude": 24.5905206,
    "longitude": 73.740618
  },
  {
    "name": "UBE (JSS) GOVERNMENT DAY SECONDARY SCHOOL, OKUTA                                                             ",
    "lga": "BARUTEN",
    "category": "PUBLIC",
    "address": "ube (jss) government day secondary school, okuta                                                             , okuta",
    "ownership": "STATE/LOCAL GOVERNMENT",
    "school_level": "JSS ONLY",
    "latitude": 9.2228301,
    "longitude": 3.2005641
  },
  {
    "name": "UBE ANSARUL ISLAM JUNIOR SECONDARY SCHOOL CHIKANDA                                                             ",
    "lga": "BARUTEN",
    "category": "PUBLIC",
    "address": "ube ansarul islam junior secondary school chikanda                                                             , chikanda",
    "ownership": "STATE/LOCAL GOVERNMENT",
    "school_level": "JSS AND SSS",
    "latitude": 9.8251503,
    "longitude": 3.365344
  },
  {
    "name": "UBE GOVERNMENT JUNIOR SECONDARY SCHOOL ILESHA BARUBA                                                  ",
    "lga": "BARUTEN",
    "category": "PUBLIC",
    "address": "ube government junior secondary school ilesha baruba                                                  , ilesha baruba",
    "ownership": "STATE/LOCAL GOVERNMENT",
    "school_level": "JSS ONLY",
    "latitude": 8.8870464,
    "longitude": 3.3993751
  },
  {
    "name": "UBE JUNIOR SECONDARY SCHOOL GWANARA                                                          ",
    "lga": "BARUTEN",
    "category": "PUBLIC",
    "address": "ube junior secondary school gwanara                                                          , gwanara",
    "ownership": "STATE/LOCAL GOVERNMENT",
    "school_level": "JSS ONLY",
    "latitude": 8.8921026,
    "longitude": 3.1353091
  },
  {
    "name": "UBE JUNIOR SECONDARY SCHOOL, GWASSORO                                                                   ",
    "lga": "BARUTEN",
    "category": "PUBLIC",
    "address": "ube junior secondary school, gwassoro                                                                   , gwassoro",
    "ownership": "STATE/LOCAL GOVERNMENT",
    "school_level": "JSS ONLY",
    "latitude": 26.2124007,
    "longitude": 78.1772053
  },
  {
    "name": "UBE JUNIOR SECONDARY SCHOOL, KOSUBOSU                                                                           ",
    "lga": "BARUTEN",
    "category": "PUBLIC",
    "address": "ube junior secondary school, kosubosu                                                                           , kosubosu",
    "ownership": "STATE/LOCAL GOVERNMENT",
    "school_level": "JSS ONLY",
    "latitude": 9.551069,
    "longitude": 3.2269419
  },
  {
    "name": "AL-AMEEN JUNIOR SECONDARY SCHOOL, LAFIAGI",
    "lga": "EDU",
    "category": "PRIVATE",
    "address": "al-ameen junior secondary school, lafiagi, lafiagi",
    "ownership": "PRIVATE PROPRIETOR",
    "school_level": "JSS ONLY",
    "latitude": 8.8525279,
    "longitude": 5.4044268
  },
  {
    "name": "AVE MARIA CATHOLIC SECONDARY SCHOOL LAFIAGI",
    "lga": "EDU",
    "category": "PRIVATE",
    "address": "ave maria catholic secondary school lafiagi, lafiagi town",
    "ownership": "PRIVATE PROPRIETOR",
    "school_level": "JSS AND SSS",
    "latitude": 8.8525279,
    "longitude": 5.4044268
  },
  {
    "name": "BATA KINTI ETSU HALIRU JUNIOR SECONDARY SCHOOL FAIGI",
    "lga": "EDU",
    "category": "PUBLIC",
    "address": "bata kinti etsu haliru junior secondary school faigi, faigi",
    "ownership": "STATE/LOCAL GOVERNMENT",
    "school_level": "JSS ONLY",
    "latitude": 36.3023954,
    "longitude": -82.36985299999999
  },
  {
    "name": "AL FALAAH COLLEGE",
    "lga": "ILORIN EAST",
    "category": "PRIVATE",
    "address": "al falaah college, ilorin",
    "ownership": "PRIVATE PROPRIETOR",
    "school_level": "JSS ONLY",
    "latitude": 8.5373356,
    "longitude": 4.5443923
  },
  {
    "name": "AL HALAL COLLEGE,AKEREBIATA",
    "lga": "ILORIN EAST",
    "category": "PRIVATE",
    "address": "al halal college,akerebiata, ilorin",
    "ownership": "PRIVATE PROPRIETOR",
    "school_level": "JSS AND SSS",
    "latitude": 8.5373356,
    "longitude": 4.5443923
  },
  {
    "name": "AL-AMEEN STANDARD COLLEGE, ABATA JAGUN, ONIDOKO ILORIN ",
    "lga": "ILORIN EAST",
    "category": "PRIVATE",
    "address": "al-ameen standard college, abata jagun, onidoko ilorin , ilorin ",
    "ownership": "PRIVATE PROPRIETOR",
    "school_level": "JSS AND SSS",
    "latitude": 8.5373356,
    "longitude": 4.5443923
  },
  {
    "name": "ALAMUL YEKEEN ISLAMIC COLLEGE",
    "lga": "ILORIN EAST",
    "category": "PRIVATE",
    "address": "alamul yekeen islamic college, ilorin",
    "ownership": "PRIVATE PROPRIETOR",
    "school_level": "JSS ONLY",
    "latitude": 8.5033053,
    "longitude": 4.5649404
  },
  {
    "name": "AL-ASIM MODEL COLLEGE, 87 IDI OGEDE  OFF TINU STREET AKEREBIATA ILORIN.",
    "lga": "ILORIN EAST",
    "category": "PRIVATE",
    "address": "al-asim model college, 87 idi ogede  off tinu street akerebiata ilorin., ilorin ",
    "ownership": "PRIVATE PROPRIETOR",
    "school_level": "JSS ONLY",
    "latitude": 8.512252199999999,
    "longitude": 4.5521385
  },
  {
    "name": "AL-ITTIHAD SECONDARY SCHOOL AKUO-OKE OSE",
    "lga": "ILORIN EAST",
    "category": "PRIVATE",
    "address": "al-ittihad secondary school akuo-oke ose, oke ose",
    "ownership": "PRIVATE PROPRIETOR",
    "school_level": "JSS ONLY",
    "latitude": 8.5546965,
    "longitude": 4.6967189
  },
  {
    "name": "ANSARUL ISLAM JUNIOR SECONDARY SCHOOL, MARAFA OJA",
    "lga": "ILORIN EAST",
    "category": "PUBLIC",
    "address": "ansarul islam junior secondary school, marafa oja, marafa-oja",
    "ownership": "STATE/LOCAL GOVERNMENT",
    "school_level": "JSS ONLY",
    "latitude": -3.0314648,
    "longitude": 39.9555631
  },
  {
    "name": "ARMY DAY JUNIOR SECONDARY SCHOOL, SOBI",
    "lga": "ILORIN EAST",
    "category": "PUBLIC",
    "address": "army day junior secondary school, sobi, sobi ilorin",
    "ownership": "STATE/LOCAL GOVERNMENT",
    "school_level": "JSS ONLY",
    "latitude": 8.5373356,
    "longitude": 4.5443923
  },
  {
    "name": "AYO COLLEGE,ABIOWA ESTATE OKELELE, ILORIN",
    "lga": "ILORIN EAST",
    "category": "PRIVATE",
    "address": "ayo college,abiowa estate okelele, ilorin, ilorin east",
    "ownership": "PRIVATE PROPRIETOR",
    "school_level": "JSS ONLY",
    "latitude": 8.512175,
    "longitude": 4.5477392
  },
  {
    "name": "BEST WAY COLLEGE",
    "lga": "ILORIN EAST",
    "category": "PRIVATE",
    "address": "best way college, oke-oyi",
    "ownership": "PRIVATE PROPRIETOR",
    "school_level": "JSS AND SSS",
    "latitude": 9.0831729,
    "longitude": 3.3476694
  },
  {
    "name": "BRIGHT DIAMOND ACADEMY,KULENDE",
    "lga": "ILORIN EAST",
    "category": "PRIVATE",
    "address": "bright diamond academy,kulende, ilorin",
    "ownership": "PRIVATE PROPRIETOR",
    "school_level": "JSS ONLY",
    "latitude": 8.5115149,
    "longitude": 4.5860898
  },
  {
    "name": "BULALA HERITAGE ACADEMY SECONDARY, HARNONY ESTATE, AKEREBIATA ILORIN",
    "lga": "ILORIN EAST",
    "category": "PRIVATE",
    "address": "bulala heritage academy secondary, harnony estate, akerebiata ilorin, ilorin",
    "ownership": "PRIVATE PROPRIETOR",
    "school_level": "JSS AND SSS",
    "latitude": 8.5229923,
    "longitude": 4.5589133
  },
  {
    "name": "BURHANUDEEN JUNIOR SECONDARY SCHOOL, ILORIN",
    "lga": "ILORIN EAST",
    "category": "PUBLIC",
    "address": "burhanudeen junior secondary school, ilorin, oja-gboro ilorin",
    "ownership": "STATE/LOCAL GOVERNMENT",
    "school_level": "JSS ONLY",
    "latitude": 8.5004812,
    "longitude": 4.5602851
  },
  {
    "name": "CHERUBIM AND SERAPHIM COLLEGE JUNIOR SECONDARY SCHOOL SABO-OKE ILORIN",
    "lga": "ILORIN EAST",
    "category": "PUBLIC",
    "address": "cherubim and seraphim college junior secondary school sabo-oke ilorin, sabo-oke ilorin",
    "ownership": "STATE/LOCAL GOVERNMENT",
    "school_level": "JSS ONLY",
    "latitude": 8.489893499999999,
    "longitude": 4.573366099999999
  },
  {
    "name": "CHILDREN AFFAIRS ACADEMY SECONDARY,HARMONY ESTATE,AKEREBIATA",
    "lga": "ILORIN EAST",
    "category": "PRIVATE",
    "address": "children affairs academy secondary,harmony estate,akerebiata, ilorin",
    "ownership": "PRIVATE PROPRIETOR",
    "school_level": "JSS AND SSS",
    "latitude": 8.5206856,
    "longitude": 4.5658618
  },
  {
    "name": "COMMUNITY  JUNIOR SECONDARY SCHOOL, AGBEYANGI",
    "lga": "ILORIN EAST",
    "category": "PUBLIC",
    "address": "community  junior secondary school, agbeyangi, agbeyangi",
    "ownership": "STATE/LOCAL GOVERNMENT",
    "school_level": "JSS AND SSS",
    "latitude": 8.5872738,
    "longitude": 4.8114899
  },
  {
    "name": "COMMUNITY JUNIOR SECONDARY SCHOOL, AIYETORO ILE",
    "lga": "ILORIN EAST",
    "category": "PUBLIC",
    "address": "community junior secondary school, aiyetoro ile, aiyetoro-ile",
    "ownership": "COMMUNITY",
    "school_level": "JSS AND SSS",
    "latitude": 7.2390599,
    "longitude": 3.0325855
  },
  {
    "name": "COVENANT PRINCE AND PRINCESS COLLEGE, SANDA ESTATE, ARUBIEWE, OLD SHAO GARAGE ILORIN ",
    "lga": "ILORIN EAST",
    "category": "PRIVATE",
    "address": "covenant prince and princess college, sanda estate, arubiewe, old shao garage ilorin , ilorin ",
    "ownership": "PRIVATE PROPRIETOR",
    "school_level": "JSS AND SSS",
    "latitude": 8.5225601,
    "longitude": 4.5539388
  },
  {
    "name": "CRESCENT STAR ACADEMY, SOBI ROAD AKEREBIATA ILORIN",
    "lga": "ILORIN EAST",
    "category": "PRIVATE",
    "address": "crescent star academy, sobi road akerebiata ilorin, ilorin east",
    "ownership": "PRIVATE PROPRIETOR",
    "school_level": "JSS ONLY",
    "latitude": 8.5206856,
    "longitude": 4.5658618
  },
  {
    "name": "DARUL-ISTIJABA MODEL COLLEGE, SHAO ROAD, ILORIN",
    "lga": "ILORIN EAST",
    "category": "PRIVATE",
    "address": "darul-istijaba model college, shao road, ilorin, ilorin east",
    "ownership": "PRIVATE PROPRIETOR",
    "school_level": "JSS ONLY",
    "latitude": 8.537279,
    "longitude": 4.5444192
  },
  {
    "name": "DAVID AKINTOLA COLLEGE",
    "lga": "ILORIN EAST",
    "category": "PRIVATE",
    "address": "david akintola college, sabo oke ilorin",
    "ownership": "PRIVATE PROPRIETOR",
    "school_level": "JSS ONLY",
    "latitude": 8.489728,
    "longitude": 4.5727441
  },
  {
    "name": "D-LIGHT DIAMOND COLLEGE ILORIN",
    "lga": "ILORIN EAST",
    "category": "PRIVATE",
    "address": "d-light diamond college ilorin, ilorin",
    "ownership": "PRIVATE PROPRIETOR",
    "school_level": "JSS AND SSS",
    "latitude": 8.4897785,
    "longitude": 4.5725025
  },
  {
    "name": "EVER INCREASING HIGH SCHOOL, AKEREBIATA ILORIN",
    "lga": "ILORIN EAST",
    "category": "PRIVATE",
    "address": "ever increasing high school, akerebiata ilorin, ilorin east",
    "ownership": "PRIVATE PROPRIETOR",
    "school_level": "JSS ONLY",
    "latitude": 8.512252199999999,
    "longitude": 4.5521385
  },
  {
    "name": "FOUNTAIN INTERNATIONAL SECONDARY SCHOOL",
    "lga": "ILORIN EAST",
    "category": "PRIVATE",
    "address": "fountain international secondary school, apata yakuba, ilorin",
    "ownership": "PRIVATE PROPRIETOR",
    "school_level": "JSS ONLY",
    "latitude": 8.5373356,
    "longitude": 4.5443923
  },
  {
    "name": "FUTURE LEADERS MODEL COLLEGE, ISALE-KOKO",
    "lga": "ILORIN EAST",
    "category": "PRIVATE",
    "address": "future leaders model college, isale-koko, ilorin",
    "ownership": "PRIVATE PROPRIETOR",
    "school_level": "JSS ONLY",
    "latitude": 8.5373356,
    "longitude": 4.5443923
  },
  {
    "name": "GOOD MOTHER NURSERY AND PRIMARY SCHOOL,OKE-ADINI ALAGBADO ILORIN",
    "lga": "ILORIN EAST",
    "category": "PUBLIC",
    "address": "good mother nursery and primary school,oke-adini alagbado ilorin, ilorin east",
    "ownership": "STATE/LOCAL GOVERNMENT",
    "school_level": "JSS ONLY",
    "latitude": 8.5373356,
    "longitude": 4.5443923
  },
  {
    "name": "GOVERNMENT DAY JUNIOR SECONDARY SCHOOL OKE-OGBE",
    "lga": "ILORIN EAST",
    "category": "PUBLIC",
    "address": "government day junior secondary school oke-ogbe, oke-ogbe",
    "ownership": "STATE/LOCAL GOVERNMENT",
    "school_level": "JSS ONLY",
    "latitude": 6.969507,
    "longitude": 3.8164007
  },
  {
    "name": "GOVERNMENT DAY JUNIOR SECONDARY SCHOOL, AMULE",
    "lga": "ILORIN EAST",
    "category": "PUBLIC",
    "address": "government day junior secondary school, amule, amule ilorin",
    "ownership": "STATE/LOCAL GOVERNMENT",
    "school_level": "JSS ONLY",
    "latitude": 8.5373356,
    "longitude": 4.5443923
  },
  {
    "name": "GOVERNMENT DAY JUNIOR SECONDARY SCHOOL, FATE",
    "lga": "ILORIN EAST",
    "category": "PUBLIC",
    "address": "government day junior secondary school, fate, fate ilorin",
    "ownership": "STATE/LOCAL GOVERNMENT",
    "school_level": "JSS AND SSS",
    "latitude": 8.496941699999999,
    "longitude": 4.577245
  },
  {
    "name": "GOVERNMENT DAY JUNIOR SECONDARY SCHOOL, KARUMA",
    "lga": "ILORIN EAST",
    "category": "PUBLIC",
    "address": "government day junior secondary school, karuma, karuma ilorin",
    "ownership": "STATE/LOCAL GOVERNMENT",
    "school_level": "JSS ONLY",
    "latitude": 8.5373356,
    "longitude": 4.5443923
  },
  {
    "name": "GOVERNMENT DAY JUNIOR SECONDARY SCHOOL, TAPA AIYETORO OJA",
    "lga": "ILORIN EAST",
    "category": "PUBLIC",
    "address": "government day junior secondary school, tapa aiyetoro oja, aiyetoro oja village",
    "ownership": "STATE/LOCAL GOVERNMENT",
    "school_level": "JSS ONLY",
    "latitude": 7.2390599,
    "longitude": 3.0325855
  },
  {
    "name": "GOVERNMENT JUNIOR SECONDARY SCHOOL, ILORIN",
    "lga": "ILORIN EAST",
    "category": "PUBLIC",
    "address": "government junior secondary school, ilorin, ilorin",
    "ownership": "STATE/LOCAL GOVERNMENT",
    "school_level": "JSS AND SSS",
    "latitude": 8.5373356,
    "longitude": 4.5443923
  },
  {
    "name": "GOVERNMENT MODEL GIRLS JUNIOR SECONDARY SCHOOL, OKE-OYI",
    "lga": "ILORIN EAST",
    "category": "PUBLIC",
    "address": "government model girls junior secondary school, oke-oyi, oke-oyi",
    "ownership": "STATE/LOCAL GOVERNMENT",
    "school_level": "JSS ONLY",
    "latitude": 8.5791285,
    "longitude": 4.7148199
  },
  {
    "name": "GRACEVILLE INTERNATIONAL SCHOOLS.",
    "lga": "ILORIN EAST",
    "category": "PRIVATE",
    "address": "graceville international schools., ilorin",
    "ownership": "PRIVATE PROPRIETOR",
    "school_level": "JSS AND SSS",
    "latitude": 8.5153834,
    "longitude": 4.559915
  },
  {
    "name": "HAJRAB INTERNATIONAL SECONDARY SCHOOL,AKEREBIATA",
    "lga": "ILORIN EAST",
    "category": "PRIVATE",
    "address": "hajrab international secondary school,akerebiata, ilorin",
    "ownership": "PRIVATE PROPRIETOR",
    "school_level": "JSS AND SSS",
    "latitude": 8.520236299999999,
    "longitude": 4.5648307
  },
  {
    "name": "HIS ROYAL MAJESTY COLLEGE, SABO-OKE",
    "lga": "ILORIN EAST",
    "category": "PRIVATE",
    "address": "his royal majesty college, sabo-oke, sabo-oke ilorin",
    "ownership": "PRIVATE PROPRIETOR",
    "school_level": "JSS ONLY",
    "latitude": 8.489728,
    "longitude": 4.5727441
  },
  {
    "name": "IFE OLUWA INTERNATIONAL COLEGE",
    "lga": "ILORIN EAST",
    "category": "PRIVATE",
    "address": "ife oluwa international colege, akerebiata ilorin",
    "ownership": "PRIVATE PROPRIETOR",
    "school_level": "JSS ONLY",
    "latitude": 8.5373356,
    "longitude": 4.5443923
  },
  {
    "name": "IMAM HAMZAT MODEL COLLEGE, AIYEGBAMI ILORIN",
    "lga": "ILORIN EAST",
    "category": "PRIVATE",
    "address": "imam hamzat model college, aiyegbami ilorin, ilorin east",
    "ownership": "PRIVATE PROPRIETOR",
    "school_level": "JSS ONLY",
    "latitude": 8.537279,
    "longitude": 4.5444192
  },
  {
    "name": "MARVELLOUS3 GRACE NURSERY AND PRIMARY SCHOOL, EKAN MEJE",
    "lga": "OKE-ERO",
    "category": "PRIVATE",
    "address": "marvellous3 grace nursery and primary school, ekan meje, ekan meje",
    "ownership": "PRIVATE PROPRIETOR",
    "school_level": "ECCDE AND PRIMARY",
    "latitude": 8.043069,
    "longitude": 5.0891534
  },
  {
    "name": "MUSLIM COMMUNITY PRIMARY SCHOOL A  ODO-OWA",
    "lga": "OKE-ERO",
    "category": "PUBLIC",
    "address": "muslim community primary school a  odo-owa, odo-owa",
    "ownership": "STATE/LOCAL GOVERNMENT",
    "school_level": "ECCDE AND PRIMARY",
    "latitude": 8.087712699999999,
    "longitude": 5.1614534
  },
  {
    "name": "MUSLIM COMMUNITY PRIMARY SCHOOL  B ODO-OWA",
    "lga": "OKE-ERO",
    "category": "PUBLIC",
    "address": "muslim community primary school  b odo-owa, odo-owa",
    "ownership": "STATE/LOCAL GOVERNMENT",
    "school_level": "ECCDE AND PRIMARY",
    "latitude": 8.087712699999999,
    "longitude": 5.1614534
  },
  {
    "name": "MUSLIM COMMUNITY PRIMARY SCHOOL, EKAN MEJE",
    "lga": "OKE-ERO",
    "category": "PUBLIC",
    "address": "muslim community primary school, ekan meje, ekan meje",
    "ownership": "STATE/LOCAL GOVERNMENT",
    "school_level": "ECCDE AND PRIMARY",
    "latitude": 8.043069,
    "longitude": 5.0891534
  },
  {
    "name": "NOMADIC LGEA PRIMARY SCHOOL,  ILOFA",
    "lga": "OKE-ERO",
    "category": "PUBLIC",
    "address": "nomadic lgea primary school,  ilofa, ilofa",
    "ownership": "STATE/LOCAL GOVERNMENT",
    "school_level": "ECCDE AND PRIMARY",
    "latitude": 8.0900476,
    "longitude": 5.1515148
  },
  {
    "name": "NOMADIC LGEA PRIMARY SCHOOL, IDOFIN IGBANA",
    "lga": "OKE-ERO",
    "category": "PUBLIC",
    "address": "nomadic lgea primary school, idofin igbana, ekan meje",
    "ownership": "STATE/LOCAL GOVERNMENT",
    "school_level": "PRIMARY ONLY",
    "latitude": 8.0420911,
    "longitude": 5.0929864
  },
  {
    "name": "NOMADIC PRIMARY SCHOOL,  ATAPA OKE ESI",
    "lga": "OKE-ERO",
    "category": "PUBLIC",
    "address": "nomadic primary school,  atapa oke esi, odo-owa",
    "ownership": "STATE/LOCAL GOVERNMENT",
    "school_level": "ECCDE AND PRIMARY",
    "latitude": 8.087712699999999,
    "longitude": 5.1614534
  },
  {
    "name": "OMORIBANI MEMORIAL NURSERY AND PRIMARY SCHOOL.  KAJOLA",
    "lga": "OKE-ERO",
    "category": "PRIVATE",
    "address": "omoribani memorial nursery and primary school.  kajola, kajola",
    "ownership": "PRIVATE PROPRIETOR",
    "school_level": "ECCDE AND PRIMARY",
    "latitude": 8.0901864,
    "longitude": 3.346448
  },
  {
    "name": "OUR SAVIOUR JUBILEE  CATHOLIC NURSERY AND PRIMARY SCHOOL, EKAN MEJE",
    "lga": "OKE-ERO",
    "category": "PRIVATE",
    "address": "our saviour jubilee  catholic nursery and primary school, ekan meje, ekan meje",
    "ownership": "ASSOCIATION",
    "school_level": "ECCDE AND PRIMARY",
    "latitude": 8.043069,
    "longitude": 5.0891534
  },
  {
    "name": "ST JOHNS PRIMARY SCHOOL  , ILOFA",
    "lga": "OKE-ERO",
    "category": "PUBLIC",
    "address": "st johns primary school  , ilofa, ilofa",
    "ownership": "STATE/LOCAL GOVERNMENT",
    "school_level": "ECCDE AND PRIMARY",
    "latitude": 8.0933491,
    "longitude": 5.1458131
  },
  {
    "name": "ST JOSEPH ( CAC) PRIMARY SCHOOL, ODO-OWA",
    "lga": "OKE-ERO",
    "category": "PUBLIC",
    "address": "st joseph ( cac) primary school, odo-owa, odo-owa",
    "ownership": "STATE/LOCAL GOVERNMENT",
    "school_level": "ECCDE AND PRIMARY",
    "latitude": 8.087712699999999,
    "longitude": 5.1614534
  },
  {
    "name": "ST JOSEPH  ( CAC ) PRIMARY SCHOOL B   ODO-OWA",
    "lga": "OKE-ERO",
    "category": "PUBLIC",
    "address": "st joseph  ( cac ) primary school b   odo-owa, o",
    "ownership": "STATE/LOCAL GOVERNMENT",
    "school_level": "ECCDE AND PRIMARY",
    "latitude": 8.087712699999999,
    "longitude": 5.1614534
  },
  {
    "name": "ST MICHAEL PRIMARY SCHOOL  A EKAN-MEJE",
    "lga": "OKE-ERO",
    "category": "PUBLIC",
    "address": "st michael primary school  a ekan-meje, odo-owa",
    "ownership": "STATE/LOCAL GOVERNMENT",
    "school_level": "ECCDE AND PRIMARY",
    "latitude": 8.043069,
    "longitude": 5.0891534
  },
  {
    "name": "ST MICHAEL S CATHOLICS SCHOOL   ( B )L.B.E.A",
    "lga": "OKE-ERO",
    "category": "PUBLIC",
    "address": "st michael s catholics school   ( b )l.b.e.a, ekan meje",
    "ownership": "STATE/LOCAL GOVERNMENT",
    "school_level": "ECCDE AND PRIMARY",
    "latitude": 8.043069,
    "longitude": 5.0891534
  },
  {
    "name": "ST PAULS LGEA PRIMARY SCHOOL B, IDOFIN IGBANA",
    "lga": "OKE-ERO",
    "category": "PUBLIC",
    "address": "st pauls lgea primary school b, idofin igbana, idofin igbana",
    "ownership": "STATE/LOCAL GOVERNMENT",
    "school_level": "ECCDE AND PRIMARY",
    "latitude": 8.2611498,
    "longitude": 5.7260332
  },
  {
    "name": "ST PAULS LGEA PRIMARY SCHOOL, A IDOFIN IGBANA",
    "lga": "OKE-ERO",
    "category": "PUBLIC",
    "address": "st pauls lgea primary school, a idofin igbana, idofin igbana ",
    "ownership": "STATE/LOCAL GOVERNMENT",
    "school_level": "ECCDE AND PRIMARY",
    "latitude": 8.2611498,
    "longitude": 5.7260332
  },
  {
    "name": "ST. PETERS PRIMARY SCHOOL B, ILOFFA",
    "lga": "OKE-ERO",
    "category": "PUBLIC",
    "address": "st. peters primary school b, iloffa, iloffa",
    "ownership": "STATE/LOCAL GOVERNMENT",
    "school_level": "ECCDE AND PRIMARY",
    "latitude": 8.107048899999999,
    "longitude": 5.137994600000001
  },
  {
    "name": "ST THOMAS CATHOLIC PRIMARY,  ODO-OWA",
    "lga": "OKE-ERO",
    "category": "PUBLIC",
    "address": "st thomas catholic primary,  odo-owa, odo-owa",
    "ownership": "STATE/LOCAL GOVERNMENT",
    "school_level": "ECCDE AND PRIMARY",
    "latitude": 8.0861625,
    "longitude": 5.1515156
  },
  {
    "name": "THE CHIEF C0RNER ST0NE NURSERY AND PRIMARY SCHOOL, ILOFFA",
    "lga": "OKE-ERO",
    "category": "PRIVATE",
    "address": "the chief c0rner st0ne nursery and primary school, iloffa, iloffa",
    "ownership": "PRIVATE PROPRIETOR",
    "school_level": "ECCDE AND PRIMARY",
    "latitude": 8.107048899999999,
    "longitude": 5.137994600000001
  },
  {
    "name": "THE LIVING SEEDS  NURSERY AND PRIMARY SCHOOL. ODO-OWA.",
    "lga": "OKE-ERO",
    "category": "PRIVATE",
    "address": "the living seeds  nursery and primary school. odo-owa., odo-owa",
    "ownership": "PRIVATE PROPRIETOR",
    "school_level": "ECCDE AND PRIMARY",
    "latitude": 8.087712699999999,
    "longitude": 5.1614534
  },
  {
    "name": "UNIQUE NURSERY AND PRIMARY SCHOOL,  KAJOLA",
    "lga": "OKE-ERO",
    "category": "PRIVATE",
    "address": "unique nursery and primary school,  kajola, kajola",
    "ownership": "PRIVATE PROPRIETOR",
    "school_level": "ECCDE AND PRIMARY",
    "latitude": 8.0901864,
    "longitude": 3.346448
  },
  {
    "name": "UNITED ANGLICAN PRIMARY SCHOOL, EKAN MEJE",
    "lga": "OKE-ERO",
    "category": "PUBLIC",
    "address": "united anglican primary school, ekan meje, ekan meje",
    "ownership": "STATE/LOCAL GOVERNMENT",
    "school_level": "ECCDE AND PRIMARY",
    "latitude": 8.0434319,
    "longitude": 5.1010342
  },
  {
    "name": "CHRISTIAN COMMUNITY LGEA PRIMARY SCHOOL, ODO-OWA.",
    "lga": "OKE-ERO",
    "category": "PUBLIC",
    "address": "christian community lgea primary school, odo-owa., odo-owa",
    "ownership": "STATE/LOCAL GOVERNMENT",
    "school_level": "ECCDE AND PRIMARY",
    "latitude": 8.087712699999999,
    "longitude": 5.1614534
  },
  {
    "name": "AP0ST0LIC FAITH NURSERY AND PRIMARY SCHOOL, IDOFIN ODO-ASHE",
    "lga": "OKE-ERO",
    "category": "PRIVATE",
    "address": "ap0st0lic faith nursery and primary school, idofin odo-ashe, idofin odo  ashe",
    "ownership": "PRIVATE PROPRIETOR",
    "school_level": "ECCDE AND PRIMARY",
    "latitude": 8.2295195,
    "longitude": 5.3520876
  },
  {
    "name": "FUTURE GIANT ACADEMY NURSERY AND PRIMARY SCHOOL",
    "lga": "OKE-ERO",
    "category": "PRIVATE",
    "address": "future giant academy nursery and primary school, iloffa",
    "ownership": "PRIVATE PROPRIETOR",
    "school_level": "ECCDE AND PRIMARY",
    "latitude": 8.107048899999999,
    "longitude": 5.137994600000001
  },
  {
    "name": "REDEEMERS NURSERY AND PRIMARY SCHOOL,  ILALE",
    "lga": "OKE-ERO",
    "category": "PRIVATE",
    "address": "redeemers nursery and primary school,  ilale, ilale",
    "ownership": "PRIVATE PROPRIETOR",
    "school_level": "ECCDE AND PRIMARY",
    "latitude": -6.827694399999999,
    "longitude": 39.2595763
  },
  {
    "name": "CHOSEN NURSERY AND PRIMARY SCHOOL, EKAN-MEJE",
    "lga": "OKE-ERO",
    "category": "PRIVATE",
    "address": "chosen nursery and primary school, ekan-meje, ekan-meje",
    "ownership": "PRIVATE PROPRIETOR",
    "school_level": "ECCDE AND PRIMARY",
    "latitude": 8.043069,
    "longitude": 5.0891534
  },
  {
    "name": "IJAGEMO LGEA PRIMARY SCHOOL ,IDOFIN  ODO-AGA",
    "lga": "OKE-ERO",
    "category": "PUBLIC",
    "address": "ijagemo lgea primary school ,idofin  odo-aga, awoyan / alafara",
    "ownership": "STATE/LOCAL GOVERNMENT",
    "school_level": "ECCDE AND PRIMARY",
    "latitude": 6.501221699999999,
    "longitude": 3.2558482
  },
  {
    "name": "UNITED ANGLICAN PRIMARY SCHOOL A , EKAN - MEJE",
    "lga": "OKE-ERO",
    "category": "PUBLIC",
    "address": "united anglican primary school a , ekan - meje, ekan meje",
    "ownership": "STATE/LOCAL GOVERNMENT",
    "school_level": "ECCDE AND PRIMARY",
    "latitude": 8.043069,
    "longitude": 5.0891534
  },
  {
    "name": "ROYAL SEED ACADEMY IPEE",
    "lga": "OYUN",
    "category": "PRIVATE",
    "address": "royal seed academy ipee, ipee",
    "ownership": "PRIVATE PROPRIETOR",
    "school_level": "ECCDE AND PRIMARY",
    "latitude": 8.1648098,
    "longitude": 4.7523337
  },
  {
    "name": "ANSARU UD DEEN A LOCAL GOVERNMENT AUTHORITY PRIMARY SCHOOL, IJAGBO",
    "lga": "OYUN",
    "category": "PUBLIC",
    "address": "ansaru ud deen a local government authority primary school, ijagbo, ijagbo",
    "ownership": "STATE/LOCAL GOVERNMENT",
    "school_level": "ECCDE AND PRIMARY",
    "latitude": 8.177296,
    "longitude": 4.7329268
  },
  {
    "name": "ANSARUDEEN NURSERY AND PRIMARY SCHOOL,ERIN ILE",
    "lga": "OYUN",
    "category": "PRIVATE",
    "address": "ansarudeen nursery and primary school,erin ile, erin ile",
    "ownership": "PRIVATE PROPRIETOR",
    "school_level": "ECCDE AND PRIMARY",
    "latitude": 8.0973057,
    "longitude": 4.7031829
  },
  {
    "name": "ANSARUL ISLAM LOCAL GOVERNMENT AUTHORITY., IKOTUN",
    "lga": "OYUN",
    "category": "PUBLIC",
    "address": "ansarul islam local government authority., ikotun, ikotun ile",
    "ownership": "STATE/LOCAL GOVERNMENT",
    "school_level": "ECCDE AND PRIMARY",
    "latitude": 6.5630684,
    "longitude": 3.2505651
  },
  {
    "name": "ANSARUL-ISLAM SCHOOL, ERIN-ILE",
    "lga": "OYUN",
    "category": "PUBLIC",
    "address": "ansarul-islam school, erin-ile, erin ile",
    "ownership": "STATE/LOCAL GOVERNMENT",
    "school_level": "ECCDE AND PRIMARY",
    "latitude": 8.0973057,
    "longitude": 4.7031829
  },
  {
    "name": "ASSALAM ROYAL NURSERY AND PRIMARY SCHOOL,ERIN ILE",
    "lga": "OYUN",
    "category": "PRIVATE",
    "address": "assalam royal nursery and primary school,erin ile, erin ile",
    "ownership": "PRIVATE PROPRIETOR",
    "school_level": "ECCDE AND PRIMARY",
    "latitude": 8.0973057,
    "longitude": 4.7031829
  },
  {
    "name": "AUD B LOCAL GOVERNMENT AUTHORITY SCHOOL, IJAGBO",
    "lga": "OYUN",
    "category": "PUBLIC",
    "address": "aud b local government authority school, ijagbo, ijagbo",
    "ownership": "STATE/LOCAL GOVERNMENT",
    "school_level": "ECCDE AND PRIMARY",
    "latitude": 8.177296,
    "longitude": 4.7329268
  },
  {
    "name": "AYOMIKU CRECHE NURSERY AND PRIMARY SCHOOL,IPEE",
    "lga": "OYUN",
    "category": "PRIVATE",
    "address": "ayomiku creche nursery and primary school,ipee, ipee",
    "ownership": "PRIVATE PROPRIETOR",
    "school_level": "ECCDE AND PRIMARY",
    "latitude": 8.1648098,
    "longitude": 4.7523337
  },
  {
    "name": "BAPTIST A LOCAL GOVERNMENT AUTHORITY PRIMARY SCHOOL, IJAGBO",
    "lga": "OYUN",
    "category": "PUBLIC",
    "address": "baptist a local government authority primary school, ijagbo, ijagbo",
    "ownership": "STATE/LOCAL GOVERNMENT",
    "school_level": "ECCDE AND PRIMARY",
    "latitude": 8.177296,
    "longitude": 4.7329268
  },
  {
    "name": "BAPTIST B LOCAL GOVERNMENT EDUCATION AUTHORITY PRIMARY SCHOOL, IJAGBO",
    "lga": "OYUN",
    "category": "PUBLIC",
    "address": "baptist b local government education authority primary school, ijagbo, ijagbo",
    "ownership": "STATE/LOCAL GOVERNMENT",
    "school_level": "ECCDE AND PRIMARY",
    "latitude": 8.177296,
    "longitude": 4.7329268
  },
  {
    "name": "BAPTIST LOCAL GOVERNMENT AUTHORITY PRIMARY SCHOOL, ERIN-ILE",
    "lga": "OYUN",
    "category": "PUBLIC",
    "address": "baptist local government authority primary school, erin-ile, erin ile",
    "ownership": "STATE/LOCAL GOVERNMENT",
    "school_level": "ECCDE AND PRIMARY",
    "latitude": 8.0973057,
    "longitude": 4.7031829
  },
  {
    "name": "BAPTIST LOCAL GOVERNMENT AUTHORITY PRIMARY SCHOOL, IGOSUN",
    "lga": "OYUN",
    "category": "PUBLIC",
    "address": "baptist local government authority primary school, igosun, igosun",
    "ownership": "STATE/LOCAL GOVERNMENT",
    "school_level": "ECCDE AND PRIMARY",
    "latitude": 8.1224627,
    "longitude": 4.7639811
  },
  {
    "name": "BAPTIST LOCAL GOVERNMENT AUTHORITY PRIMARY SCHOOL, IPEE",
    "lga": "OYUN",
    "category": "PUBLIC",
    "address": "baptist local government authority primary school, ipee, ipee",
    "ownership": "STATE/LOCAL GOVERNMENT",
    "school_level": "ECCDE AND PRIMARY",
    "latitude": 8.1648098,
    "longitude": 4.7523337
  },
  {
    "name": "BAPTIST NURSERY AND PRIMARY IGOSUN",
    "lga": "OYUN",
    "category": "PRIVATE",
    "address": "baptist nursery and primary igosun, igosun",
    "ownership": "PRIVATE PROPRIETOR",
    "school_level": "ECCDE AND PRIMARY",
    "latitude": 8.1212505,
    "longitude": 4.7694417
  },
  {
    "name": "BEST WAY NURSERY AND PRIMARY SCHOOL,ERIN ILE",
    "lga": "OYUN",
    "category": "PRIVATE",
    "address": "best way nursery and primary school,erin ile, erin ile",
    "ownership": "PRIVATE PROPRIETOR",
    "school_level": "ECCDE AND PRIMARY",
    "latitude": 8.0973057,
    "longitude": 4.7031829
  },
  {
    "name": "BETHEL NURSERY AND PRIMARY SCHOOL,ERIN ILE",
    "lga": "OYUN",
    "category": "PRIVATE",
    "address": "bethel nursery and primary school,erin ile, erin ile",
    "ownership": "PRIVATE PROPRIETOR",
    "school_level": "ECCDE AND PRIMARY",
    "latitude": 8.0973057,
    "longitude": 4.7031829
  },
  {
    "name": "KAIAMA LOCAL GOVERNMENT EDUCATION AUTHORITY NOMADIC PRIMARY SCHOOL, TUNGA ALHAJI UMAR",
    "lga": "KAIAMA",
    "category": "PUBLIC",
    "address": "kaiama local government education authority nomadic primary school, tunga alhaji umar, gwettekuta tunga mangoro",
    "ownership": "STATE/LOCAL GOVERNMENT",
    "school_level": "PRIMARY ONLY",
    "latitude": 9.6062133,
    "longitude": 3.9419415
  },
  {
    "name": "KAIAMA LOCAL GOVERNMENT EDUCATION AUTHORITY NOMADIC PRIMARY SCHOOL, TUNGA KOSI",
    "lga": "KAIAMA",
    "category": "PUBLIC",
    "address": "kaiama local government education authority nomadic primary school, tunga kosi, tunga kosi",
    "ownership": "STATE/LOCAL GOVERNMENT",
    "school_level": "PRIMARY ONLY",
    "latitude": 9.6062133,
    "longitude": 3.9419415
  },
  {
    "name": "KAIAMA LOCAL GOVERNMENT EDUCATION AUTHORITY NOMADIC PRIMARY SCHOOL, TUNGA UKE",
    "lga": "KAIAMA",
    "category": "PUBLIC",
    "address": "kaiama local government education authority nomadic primary school, tunga uke, tunga alhaji uke",
    "ownership": "STATE/LOCAL GOVERNMENT",
    "school_level": "PRIMARY ONLY",
    "latitude": 9.6062133,
    "longitude": 3.9419415
  },
  {
    "name": "KAIAMA LOCAL GOVERNMENT EDUCATION AUTHORITY NOMADIC PRIMARY SCHOOL,BANIGARE",
    "lga": "KAIAMA",
    "category": "PUBLIC",
    "address": "kaiama local government education authority nomadic primary school,banigare, banigare",
    "ownership": "STATE/LOCAL GOVERNMENT",
    "school_level": "PRIMARY ONLY",
    "latitude": 9.6062133,
    "longitude": 3.9419415
  },
  {
    "name": "KAIAMA LOCAL GOVERNMENT EDUCATION AUTHORITY NOMADIC PRIMARY SCHOOL,TUNGA BELLO",
    "lga": "KAIAMA",
    "category": "PUBLIC",
    "address": "kaiama local government education authority nomadic primary school,tunga bello, tunga bello",
    "ownership": "STATE/LOCAL GOVERNMENT",
    "school_level": "PRIMARY ONLY",
    "latitude": 9.6062133,
    "longitude": 3.9419415
  },
  {
    "name": "KAIAMA LOCAL GOVERNMENT EDUCATION AUTHORITY PRIMARY SCHOOL GA YAKU",
    "lga": "KAIAMA",
    "category": "PUBLIC",
    "address": "kaiama local government education authority primary school ga yaku, ga yaku",
    "ownership": "STATE/LOCAL GOVERNMENT",
    "school_level": "PRIMARY ONLY",
    "latitude": 32.1574351,
    "longitude": -82.90712300000001
  },
  {
    "name": "KAIAMA LOCAL GOVERNMENT EDUCATION AUTHORITY PRIMARY SCHOOL GANDA SALU",
    "lga": "KAIAMA",
    "category": "PUBLIC",
    "address": "kaiama local government education authority primary school ganda salu, ganda salu",
    "ownership": "STATE/LOCAL GOVERNMENT",
    "school_level": "PRIMARY ONLY",
    "latitude": 9.6062133,
    "longitude": 3.9419415
  },
  {
    "name": "KAIAMA LOCAL GOVERNMENT EDUCATION AUTHORITY PRIMARY SCHOOL NASSARAWA GATTE",
    "lga": "KAIAMA",
    "category": "PUBLIC",
    "address": "kaiama local government education authority primary school nassarawa gatte, n gatte",
    "ownership": "STATE/LOCAL GOVERNMENT",
    "school_level": "PRIMARY ONLY",
    "latitude": 8.5474692,
    "longitude": 7.7118003
  },
  {
    "name": "KAIAMA LOCAL GOVERNMENT EDUCATION AUTHORITY PRIMARY SCHOOL OSA",
    "lga": "KAIAMA",
    "category": "PUBLIC",
    "address": "kaiama local government education authority primary school osa, osa",
    "ownership": "STATE/LOCAL GOVERNMENT",
    "school_level": "PRIMARY ONLY",
    "latitude": 9.6062133,
    "longitude": 3.9419415
  },
  {
    "name": "KAIAMA LOCAL GOVERNMENT EDUCATION AUTHORITY PRIMARY SCHOOL T/ ALHASSAN",
    "lga": "KAIAMA",
    "category": "PUBLIC",
    "address": "kaiama local government education authority primary school t/ alhassan, t/ alhassan",
    "ownership": "STATE/LOCAL GOVERNMENT",
    "school_level": "PRIMARY ONLY",
    "latitude": 9.6062133,
    "longitude": 3.9419415
  },
  {
    "name": "KAIAMA LOCAL GOVERNMENT EDUCATION AUTHORITY PRIMARY SCHOOL, ABATABU",
    "lga": "KAIAMA",
    "category": "PUBLIC",
    "address": "kaiama local government education authority primary school, abatabu, abatabu",
    "ownership": "STATE/LOCAL GOVERNMENT",
    "school_level": "PRIMARY ONLY",
    "latitude": 9.6062133,
    "longitude": 3.9419415
  },
  {
    "name": "KAIAMA LOCAL GOVERNMENT EDUCATION AUTHORITY PRIMARY SCHOOL, ADENA",
    "lga": "KAIAMA",
    "category": "PUBLIC",
    "address": "kaiama local government education authority primary school, adena, adena",
    "ownership": "STATE/LOCAL GOVERNMENT",
    "school_level": "ECCDE AND PRIMARY",
    "latitude": 9.6062133,
    "longitude": 3.9419415
  },
  {
    "name": "KAIAMA LOCAL GOVERNMENT EDUCATION AUTHORITY PRIMARY SCHOOL, ADOGUN",
    "lga": "KAIAMA",
    "category": "PUBLIC",
    "address": "kaiama local government education authority primary school, adogun, adogun",
    "ownership": "STATE/LOCAL GOVERNMENT",
    "school_level": "PRIMARY ONLY",
    "latitude": 9.6062133,
    "longitude": 3.9419415
  },
  {
    "name": "KAIAMA LOCAL GOVERNMENT EDUCATION AUTHORITY PRIMARY SCHOOL, AGERI",
    "lga": "KAIAMA",
    "category": "PUBLIC",
    "address": "kaiama local government education authority primary school, ageri, ageri",
    "ownership": "STATE/LOCAL GOVERNMENT",
    "school_level": "PRIMARY ONLY",
    "latitude": 9.6062133,
    "longitude": 3.9419415
  },
  {
    "name": "KAIAMA LOCAL GOVERNMENT EDUCATION AUTHORITY PRIMARY SCHOOL, ALEGONGO",
    "lga": "KAIAMA",
    "category": "PUBLIC",
    "address": "kaiama local government education authority primary school, alegongo, alegongo",
    "ownership": "STATE/LOCAL GOVERNMENT",
    "school_level": "PRIMARY ONLY",
    "latitude": 9.6062133,
    "longitude": 3.9419415
  },
  {
    "name": "KAIAMA LOCAL GOVERNMENT EDUCATION AUTHORITY PRIMARY SCHOOL, ALH.BANI MOSHE",
    "lga": "KAIAMA",
    "category": "PUBLIC",
    "address": "kaiama local government education authority primary school, alh.bani moshe, bani moshe",
    "ownership": "STATE/LOCAL GOVERNMENT",
    "school_level": "PRIMARY ONLY",
    "latitude": 9.6062133,
    "longitude": 3.9419415
  },
  {
    "name": "KAIAMA LOCAL GOVERNMENT EDUCATION AUTHORITY PRIMARY SCHOOL, ALIKAIKAI",
    "lga": "KAIAMA",
    "category": "PUBLIC",
    "address": "kaiama local government education authority primary school, alikaikai, alikaikai",
    "ownership": "STATE/LOCAL GOVERNMENT",
    "school_level": "PRIMARY ONLY",
    "latitude": 6.323060799999999,
    "longitude": 8.112011599999999
  },
  {
    "name": "KAIAMA LOCAL GOVERNMENT EDUCATION AUTHORITY PRIMARY SCHOOL, BABAN YARA",
    "lga": "KAIAMA",
    "category": "PUBLIC",
    "address": "kaiama local government education authority primary school, baban yara, baban yara",
    "ownership": "STATE/LOCAL GOVERNMENT",
    "school_level": "PRIMARY ONLY",
    "latitude": 9.6062133,
    "longitude": 3.9419415
  },
  {
    "name": "KAIAMA LOCAL GOVERNMENT EDUCATION AUTHORITY PRIMARY SCHOOL, BANI",
    "lga": "KAIAMA",
    "category": "PUBLIC",
    "address": "kaiama local government education authority primary school, bani, bani",
    "ownership": "STATE/LOCAL GOVERNMENT",
    "school_level": "ECCDE AND PRIMARY",
    "latitude": 9.6062133,
    "longitude": 3.9419415
  },
  {
    "name": "KAIAMA LOCAL GOVERNMENT EDUCATION AUTHORITY PRIMARY SCHOOL, BANISULA",
    "lga": "KAIAMA",
    "category": "PUBLIC",
    "address": "kaiama local government education authority primary school, banisula, banisulla",
    "ownership": "STATE/LOCAL GOVERNMENT",
    "school_level": "PRIMARY ONLY",
    "latitude": 9.6062133,
    "longitude": 3.9419415
  },
  {
    "name": "KAIAMA LOCAL GOVERNMENT EDUCATION AUTHORITY PRIMARY SCHOOL, BEZIRA",
    "lga": "KAIAMA",
    "category": "PUBLIC",
    "address": "kaiama local government education authority primary school, bezira, bezira",
    "ownership": "STATE/LOCAL GOVERNMENT",
    "school_level": "PRIMARY ONLY",
    "latitude": 9.6062133,
    "longitude": 3.9419415
  },